timestamp,pos_x,pos_y,pos_z,target_x,target_y,target_z,roll,pitch,yaw,vel_x,vel_y,vel_z,angular_vel_x,angular_vel_y,angular_vel_z,accel_x,accel_y,accel_z,f_world_x,f_world_y,f_world_z,f_body_x,f_body_y,f_body_z,tau_x,tau_y,tau_z,u1,u2,u3,u4,u5,T12,T34,T5,alpha1,alpha2theta1,theta2
1762670793.9890277,0.0,0.0,0.075,5.0,0.0,1.5,0.0,0.0,0.0,0.0,0.0,0.0,0.0,0.0,0.0,0.0,0.0,0.0,0.0,0.0,0.0,0.0,0.0,0.0,0.0,0.0,0.0,0.0,0.0,0.0,0.0,0.0,0.0,0.0,0.0,0.0,0.0,0.0,0.0
1762670793.990564,0.0,0.0,0.075,5.0,0.0,1.5,0.0,0.0,0.0,0.0,0.0,0.0,0.0,0.0,0.0,0.0,0.0,0.0,0.0,0.0,0.0,0.0,0.0,0.0,0.0,0.0,0.0,0.0,0.0,0.0,0.0,0.0,0.0,0.0,0.0,0.0,0.0,0.0,0.0
1762670793.9918408,0.0,0.0,0.075,5.0,0.0,1.5,0.0,0.0,0.0,0.0,0.0,0.0,0.0,0.0,0.0,0.0,0.0,0.0,0.0,0.0,0.0,0.0,0.0,0.0,0.0,0.0,0.0,0.0,0.0,0.0,0.0,0.0,0.0,0.0,0.0,0.0,0.0,0.0,0.0
1762670793.9934356,2.103013068659975e-20,3.653068323536459e-21,0.07509278001720499,5.0,0.0,1.5,1.9271756710624885e-19,0.0,0.0,4.057302980172453e-17,5.646038391721966e-17,0.18596630090943841,-4.989285391309309e-16,3.585353319022737e-16,-4.237840448763354e-32,0.0,0.0,0.0,0.0,0.0,0.0,0.0,0.0,0.0,0.0,0.0,0.0,0.0,0.0,0.0,0.0,0.0,0.0,0.0,0.0,0.0,0.0,0.0,0.0
1762670793.99523,2.103013068659975e-20,3.653068323536459e-21,0.07509278001720499,5.0,0.0,1.5,1.9271756710624885e-19,0.0,0.0,4.057302980172453e-17,5.646038391721966e-17,0.18596630090943841,-4.989285391309309e-16,3.585353319022737e-16,-4.237840448763354e-32,0.0,0.0,0.0,0.0,0.0,0.0,0.0,0.0,0.0,0.0,0.0,0.0,0.0,0.0,0.0,0.0,0.0,0.0,0.0,0.0,0.0,0.0,0.0,0.0
1762670793.9965832,2.103013068659975e-20,3.653068323536459e-21,0.07509278001720499,5.0,0.0,1.5,1.9271756710624885e-19,0.0,0.0,4.057302980172453e-17,5.646038391721966e-17,0.18596630090943841,-4.989285391309309e-16,3.585353319022737e-16,-4.237840448763354e-32,0.0,0.0,0.0,0.0,0.0,0.0,0.0,0.0,0.0,0.0,0.0,0.0,0.0,0.0,0.0,0.0,0.0,0.0,0.0,0.0,0.0,0.0,0.0,0.0
1762670793.9980664,9.298509485824552e-20,8.879275202807888e-21,0.07536372105656404,5.0,0.0,1.5,8.768017988643632e-19,0.0,0.0,9.559700679476504e-17,-2.810533191243687e-17,0.3528901718076558,2.482592145591939e-16,8.447151956630933e-16,-6.780775478003532e-33,0.0,0.0,0.0,0.0,0.0,0.0,0.0,0.0,0.0,0.0,0.0,0.0,0.0,0.0,0.0,0.0,0.0,0.0,0.0,0.0,0.0,0.0,0.0,0.0
1762670793.9994771,9.298509485824552e-20,8.879275202807888e-21,0.07536372105656404,5.0,0.0,1.5,8.768017988643632e-19,0.0,0.0,9.559700679476504e-17,-2.810533191243687e-17,0.3528901718076558,2.482592145591939e-16,8.447151956630933e-16,-6.780775478003532e-33,0.0,0.0,0.0,0.0,0.0,0.0,0.0,0.0,0.0,0.0,0.0,0.0,0.0,0.0,0.0,0.0,0.0,0.0,0.0,0.0,0.0,0.0,0.0,0.0
1762670794.0008473,9.298509485824552e-20,8.879275202807888e-21,0.07536372105656404,5.0,0.0,1.5,8.768017988643632e-19,0.0,0.0,9.559700679476504e-17,-2.810533191243687e-17,0.3528901718076558,2.482592145591939e-16,8.447151956630933e-16,-6.780775478003532e-33,0.0,0.0,0.0,0.0,0.0,0.0,0.0,0.0,0.0,0.0,0.0,0.0,0.0,0.0,0.0,0.0,0.0,0.0,0.0,0.0,0.0,0.0,0.0,0.0
1762670794.0022812,1.88650303187159e-19,-2.1404345086613896e-20,0.07579275268993678,5.0,0.0,1.5,1.1371810109014206e-18,9.47110974035178e-19,9.608617359643769e-24,1.296194485503681e-16,-5.994333123171224e-17,0.5023822679268458,5.306134909171182e-16,1.1430058635231892e-15,9.608617304117413e-21,0.0,0.0,0.0,0.0,0.0,0.0,0.0,0.0,0.0,0.0,0.0,0.0,0.0,0.0,0.0,0.0,0.0,0.0,0.0,0.0,0.0,0.0,0.0,0.0
1762670794.0036654,1.88650303187159e-19,-2.1404345086613896e-20,0.07579275268993678,5.0,0.0,1.5,1.1371810109014206e-18,9.47110974035178e-19,9.608617359643769e-24,1.296194485503681e-16,-5.994333123171224e-17,0.5023822679268458,5.306134909171182e-16,1.1430058635231892e-15,9.608617304117413e-21,0.0,0.0,0.0,0.0,0.0,0.0,0.0,0.0,0.0,0.0,0.0,0.0,0.0,0.0,0.0,0.0,0.0,0.0,0.0,0.0,0.0,0.0,0.0,0.0
1762670794.0050287,1.88650303187159e-19,-2.1404345086613896e-20,0.07579275268993678,5.0,0.0,1.5,1.1371810109014206e-18,9.47110974035178e-19,9.608617359643769e-24,1.296194485503681e-16,-5.994333123171224e-17,0.5023822679268458,5.306134909171182e-16,1.1430058635231892e-15,9.608617304117413e-21,0.0,0.0,0.0,0.0,0.0,0.0,0.0,0.0,0.0,0.0,0.0,0.0,0.0,0.0,0.0,0.0,0.0,0.0,0.0,0.0,0.0,0.0,0.0,0.0
1762670794.0065486,3.246305407780506e-19,-8.093218825488515e-20,0.07636313053302986,5.0,0.0,1.5,2.3365199319460218e-18,1.2602478530548094e-18,4.804308571233822e-24,1.6387109090964699e-16,-8.772642330465513e-17,0.6358010018325211,7.771276048617919e-16,1.4363867994420113e-15,4.804308518467157e-21,0.0,0.0,0.0,0.0,0.0,0.0,0.0,0.0,0.0,0.0,0.0,0.0,0.0,0.0,0.0,0.0,0.0,0.0,0.0,0.0,0.0,0.0,0.0,0.0
1762670794.0079405,3.246305407780506e-19,-8.093218825488515e-20,0.07636313053302986,5.0,0.0,1.5,2.3365199319460218e-18,1.2602478530548094e-18,4.804308571233822e-24,1.6387109090964699e-16,-8.772642330465513e-17,0.6358010018325211,7.771276048617919e-16,1.4363867994420113e-15,4.804308518467157e-21,0.0,0.0,0.0,0.0,0.0,0.0,0.0,0.0,0.0,0.0,0.0,0.0,0.0,0.0,0.0,0.0,0.0,0.0,0.0,0.0,0.0,0.0,0.0,0.0
1762670794.0092413,3.246305407780506e-19,-8.093218825488515e-20,0.07636313053302986,5.0,0.0,1.5,2.3365199319460218e-18,1.2602478530548094e-18,4.804308571233822e-24,1.6387109090964699e-16,-8.772642330465513e-17,0.6358010018325211,7.771276048617919e-16,1.4363867994420113e-15,4.804308518467157e-21,0.0,0.0,0.0,0.0,0.0,0.0,0.0,0.0,0.0,0.0,0.0,0.0,0.0,0.0,0.0,0.0,0.0,0.0,0.0,0.0,0.0,0.0,0.0,0.0
1762670794.010677,4.870342699065386e-19,-1.658737690821584e-19,0.07705942062802515,5.0,0.0,1.5,3.1074551270312043e-18,2.7165818927519157e-18,9.60861701772898e-24,1.9143783511121547e-16,-1.1176751763995104e-16,0.754409895987873,9.9062535844349e-16,1.681041116056781e-15,4.804308375147819e-21,0.0,0.0,0.0,0.0,0.0,0.0,0.0,0.0,0.0,0.0,0.0,0.0,0.0,0.0,0.0,0.0,0.0,0.0,0.0,0.0,0.0,0.0,0.0,0.0
1762670794.0121439,4.870342699065386e-19,-1.658737690821584e-19,0.07705942062802515,5.0,0.0,1.5,3.1074551270312043e-18,2.7165818927519157e-18,9.60861701772898e-24,1.9143783511121547e-16,-1.1176751763995104e-16,0.754409895987873,9.9062535844349e-16,1.681041116056781e-15,4.804308375147819e-21,0.0,0.0,0.0,0.0,0.0,0.0,0.0,0.0,0.0,0.0,0.0,0.0,0.0,0.0,0.0,0.0,0.0,0.0,0.0,0.0,0.0,0.0,0.0,0.0
1762670794.0134292,4.870342699065386e-19,-1.658737690821584e-19,0.07705942062802515,5.0,0.0,1.5,3.1074551270312043e-18,2.7165818927519157e-18,9.60861701772898e-24,1.9143783511121547e-16,-1.1176751763995104e-16,0.754409895987873,9.9062535844349e-16,1.681041116056781e-15,4.804308375147819e-21,0.0,0.0,0.0,0.0,0.0,0.0,0.0,0.0,0.0,0.0,0.0,0.0,0.0,0.0,0.0,0.0,0.0,0.0,0.0,0.0,0.0,0.0,0.0,0.0
1762670794.014836,6.771894379517838e-19,-2.8085271472004244e-19,0.07786740772794647,5.0,0.0,1.5,4.150381556738596e-18,4.421018642981456e-18,1.4412914664303576e-23,2.165672064389887e-16,-1.3652356295761712e-16,0.8593838622595674,1.2103340994381174e-15,1.902444608980998e-15,4.80430820069772e-21,0.0,0.0,0.0,0.0,0.0,0.0,0.0,0.0,0.0,0.0,0.0,0.0,0.0,0.0,0.0,0.0,0.0,0.0,0.0,0.0,0.0,0.0,0.0,0.0
1762670794.016151,6.771894379517838e-19,-2.8085271472004244e-19,0.07786740772794647,5.0,0.0,1.5,4.150381556738596e-18,4.421018642981456e-18,1.4412914664303576e-23,2.165672064389887e-16,-1.3652356295761712e-16,0.8593838622595674,1.2103340994381174e-15,1.902444608980998e-15,4.80430820069772e-21,0.0,0.0,0.0,0.0,0.0,0.0,0.0,0.0,0.0,0.0,0.0,0.0,0.0,0.0,0.0,0.0,0.0,0.0,0.0,0.0,0.0,0.0,0.0,0.0
1762670794.0174928,6.771894379517838e-19,-2.8085271472004244e-19,0.07786740772794647,5.0,0.0,1.5,4.150381556738596e-18,4.421018642981456e-18,1.4412914664303576e-23,2.165672064389887e-16,-1.3652356295761712e-16,0.8593838622595674,1.2103340994381174e-15,1.902444608980998e-15,4.80430820069772e-21,0.0,0.0,0.0,0.0,0.0,0.0,0.0,0.0,0.0,0.0,0.0,0.0,0.0,0.0,0.0,0.0,0.0,0.0,0.0,0.0,0.0,0.0,0.0,0.0
1762670794.0191905,8.879792396469351e-19,-4.1544876657479356e-19,0.07877400965675717,5.0,0.0,1.5,5.361252115457693e-18,6.307925669246968e-18,2.7672817935197626e-21,2.3706777289150297e-16,-1.5651202735729542e-16,0.9518150782504401,1.3829705461262788e-15,2.0814062161951084e-15,1.3788365811029078e-18,0.0,0.0,0.0,0.0,0.0,0.0,0.0,0.0,0.0,0.0,0.0,0.0,0.0,0.0,0.0,0.0,0.0,0.0,0.0,0.0,0.0,0.0,0.0,0.0
1762670794.0209515,8.879792396469351e-19,-4.1544876657479356e-19,0.07877400965675717,5.0,0.0,1.5,5.361252115457693e-18,6.307925669246968e-18,2.7672817935197626e-21,2.3706777289150297e-16,-1.5651202735729542e-16,0.9518150782504401,1.3829705461262788e-15,2.0814062161951084e-15,1.3788365811029078e-18,0.0,0.0,0.0,0.0,0.0,0.0,0.0,0.0,0.0,0.0,0.0,0.0,0.0,0.0,0.0,0.0,0.0,0.0,0.0,0.0,0.0,0.0,0.0,0.0
1762670794.0225194,8.879792396469351e-19,-4.1544876657479356e-19,0.07877400965675717,5.0,0.0,1.5,5.361252115457693e-18,6.307925669246968e-18,2.7672817935197626e-21,2.3706777289150297e-16,-1.5651202735729542e-16,0.9518150782504401,1.3829705461262788e-15,2.0814062161951084e-15,1.3788365811029078e-18,0.0,0.0,0.0,0.0,0.0,0.0,0.0,0.0,0.0,0.0,0.0,0.0,0.0,0.0,0.0,0.0,0.0,0.0,0.0,0.0,0.0,0.0,0.0,0.0
1762670794.0241423,1.1128876753915833e-18,-5.651555204655202e-19,0.07976719735486328,5.0,0.0,1.5,6.715425928039629e-18,8.327793763881138e-18,4.146118363819797e-21,2.521474001131098e-16,-1.7202832421909376e-16,1.0327184858807414,1.5214656263912647e-15,2.2162510891386572e-15,1.3788365595556879e-18,0.0,0.0,0.0,0.0,0.0,0.0,0.0,0.0,0.0,0.0,0.0,0.0,0.0,0.0,0.0,0.0,0.0,0.0,0.0,0.0,0.0,0.0,0.0,0.0
1762670794.025529,1.1128876753915833e-18,-5.651555204655202e-19,0.07976719735486328,5.0,0.0,1.5,6.715425928039629e-18,8.327793763881138e-18,4.146118363819797e-21,2.521474001131098e-16,-1.7202832421909376e-16,1.0327184858807414,1.5214656263912647e-15,2.2162510891386572e-15,1.3788365595556879e-18,0.0,0.0,0.0,0.0,0.0,0.0,0.0,0.0,0.0,0.0,0.0,0.0,0.0,0.0,0.0,0.0,0.0,0.0,0.0,0.0,0.0,0.0,0.0,0.0
1762670794.0270069,1.1128876753915833e-18,-5.651555204655202e-19,0.07976719735486328,5.0,0.0,1.5,6.715425928039629e-18,8.327793763881138e-18,4.146118363819797e-21,2.521474001131098e-16,-1.7202832421909376e-16,1.0327184858807414,1.5214656263912647e-15,2.2162510891386572e-15,1.3788365595556879e-18,0.0,0.0,0.0,0.0,0.0,0.0,0.0,0.0,0.0,0.0,0.0,0.0,0.0,0.0,0.0,0.0,0.0,0.0,0.0,0.0,0.0,0.0,0.0,0.0
1762670794.028681,1.3510013063768763e-18,-7.287402860906292e-19,0.0808359202443162,5.0,0.0,1.5,8.19666857723565e-18,1.0469034153550622e-17,5.5249549064171464e-21,2.642414961181212e-16,-1.8485323031852645e-16,1.103036936054556,1.636366294421703e-15,2.3249702786830333e-15,1.3788365257114223e-18,0.0,0.0,0.0,0.0,0.0,0.0,0.0,0.0,0.0,0.0,0.0,0.0,0.0,0.0,0.0,0.0,0.0,0.0,0.0,0.0,0.0,0.0,0.0,0.0
1762670794.0302696,1.3510013063768763e-18,-7.287402860906292e-19,0.0808359202443162,5.0,0.0,1.5,8.19666857723565e-18,1.0469034153550622e-17,5.5249549064171464e-21,2.642414961181212e-16,-1.8485323031852645e-16,1.103036936054556,1.636366294421703e-15,2.3249702786830333e-15,1.3788365257114223e-18,0.0,0.0,0.0,0.0,0.0,0.0,0.0,0.0,0.0,0.0,0.0,0.0,0.0,0.0,0.0,0.0,0.0,0.0,0.0,0.0,0.0,0.0,0.0,0.0
1762670794.0316644,1.3510013063768763e-18,-7.287402860906292e-19,0.0808359202443162,5.0,0.0,1.5,8.19666857723565e-18,1.0469034153550622e-17,5.5249549064171464e-21,2.642414961181212e-16,-1.8485323031852645e-16,1.103036936054556,1.636366294421703e-15,2.3249702786830333e-15,1.3788365257114223e-18,0.0,0.0,0.0,0.0,0.0,0.0,0.0,0.0,0.0,0.0,0.0,0.0,0.0,0.0,0.0,0.0,0.0,0.0,0.0,0.0,0.0,0.0,0.0,0.0
1762670794.0331097,1.6052795997185052e-18,-9.098074203934576e-19,0.08197003657109592,5.0,0.0,1.5,9.836626980505264e-18,1.2747317132444596e-17,6.913400026984214e-21,2.765227187301595e-16,-1.9833978581536377e-16,1.1636460017611228,1.756772864294856e-15,2.4300655164826768e-15,1.383640789236093e-18,0.0,0.0,0.0,0.0,0.0,0.0,0.0,0.0,0.0,0.0,0.0,0.0,0.0,0.0,0.0,0.0,0.0,0.0,0.0,0.0,0.0,0.0,0.0,0.0
1762670794.034459,1.6052795997185052e-18,-9.098074203934576e-19,0.08197003657109592,5.0,0.0,1.5,9.836626980505264e-18,1.2747317132444596e-17,6.913400026984214e-21,2.765227187301595e-16,-1.9833978581536377e-16,1.1636460017611228,1.756772864294856e-15,2.4300655164826768e-15,1.383640789236093e-18,0.0,0.0,0.0,0.0,0.0,0.0,0.0,0.0,0.0,0.0,0.0,0.0,0.0,0.0,0.0,0.0,0.0,0.0,0.0,0.0,0.0,0.0,0.0,0.0
1762670794.035872,1.6052795997185052e-18,-9.098074203934576e-19,0.08197003657109592,5.0,0.0,1.5,9.836626980505264e-18,1.2747317132444596e-17,6.913400026984214e-21,2.765227187301595e-16,-1.9833978581536377e-16,1.1636460017611228,1.756772864294856e-15,2.4300655164826768e-15,1.383640789236093e-18,0.0,0.0,0.0,0.0,0.0,0.0,0.0,0.0,0.0,0.0,0.0,0.0,0.0,0.0,0.0,0.0,0.0,0.0,0.0,0.0,0.0,0.0,0.0,0.0
1762670794.0377235,1.8711761881752015e-18,-1.1030092953601556e-18,0.08316024840349906,5.0,0.0,1.5,1.1587606813265926e-17,1.513754785970615e-17,8.297040789641857e-21,2.867629330838917e-16,-2.095820526674867e-16,1.2153584805659559,1.8574589448006953e-15,2.5222903767074746e-15,1.3836407337153564e-18,0.0,0.0,0.0,0.0,0.0,0.0,0.0,0.0,0.0,0.0,0.0,0.0,0.0,0.0,0.0,0.0,0.0,0.0,0.0,0.0,0.0,0.0,0.0,0.0
1762670794.0392451,1.8711761881752015e-18,-1.1030092953601556e-18,0.08316024840349906,5.0,0.0,1.5,1.1587606813265926e-17,1.513754785970615e-17,8.297040789641857e-21,2.867629330838917e-16,-2.095820526674867e-16,1.2153584805659559,1.8574589448006953e-15,2.5222903767074746e-15,1.3836407337153564e-18,0.0,0.0,0.0,0.0,0.0,0.0,0.0,0.0,0.0,0.0,0.0,0.0,0.0,0.0,0.0,0.0,0.0,0.0,0.0,0.0,0.0,0.0,0.0,0.0
1762670794.0406666,1.8711761881752015e-18,-1.1030092953601556e-18,0.08316024840349906,5.0,0.0,1.5,1.1587606813265926e-17,1.513754785970615e-17,8.297040789641857e-21,2.867629330838917e-16,-2.095820526674867e-16,1.2153584805659559,1.8574589448006953e-15,2.5222903767074746e-15,1.3836407337153564e-18,0.0,0.0,0.0,0.0,0.0,0.0,0.0,0.0,0.0,0.0,0.0,0.0,0.0,0.0,0.0,0.0,0.0,0.0,0.0,0.0,0.0,0.0,0.0,0.0
1762670794.0423214,2.143773351424421e-18,-1.3104784700021256e-18,0.08439804098595055,5.0,0.0,1.5,1.3447451384786856e-17,1.759107616037096e-17,9.440466056554747e-21,2.936222098606394e-16,-2.2091016102010862e-16,1.2589286061382396,1.948481082092875e-15,2.585137252698379e-15,1.2635329527930024e-18,0.0,0.0,0.0,0.0,0.0,0.0,0.0,0.0,0.0,0.0,0.0,0.0,0.0,0.0,0.0,0.0,0.0,0.0,0.0,0.0,0.0,0.0,0.0,0.0
1762670794.0439508,2.143773351424421e-18,-1.3104784700021256e-18,0.08439804098595055,5.0,0.0,1.5,1.3447451384786856e-17,1.759107616037096e-17,9.440466056554747e-21,2.936222098606394e-16,-2.2091016102010862e-16,1.2589286061382396,1.948481082092875e-15,2.585137252698379e-15,1.2635329527930024e-18,0.0,0.0,0.0,0.0,0.0,0.0,0.0,0.0,0.0,0.0,0.0,0.0,0.0,0.0,0.0,0.0,0.0,0.0,0.0,0.0,0.0,0.0,0.0,0.0
1762670794.0455303,2.143773351424421e-18,-1.3104784700021256e-18,0.08439804098595055,5.0,0.0,1.5,1.3447451384786856e-17,1.759107616037096e-17,9.440466056554747e-21,2.936222098606394e-16,-2.2091016102010862e-16,1.2589286061382396,1.948481082092875e-15,2.585137252698379e-15,1.2635329527930024e-18,0.0,0.0,0.0,0.0,0.0,0.0,0.0,0.0,0.0,0.0,0.0,0.0,0.0,0.0,0.0,0.0,0.0,0.0,0.0,0.0,0.0,0.0,0.0,0.0
1762670794.0472238,2.4226260244172504e-18,-1.5260350389882645e-18,0.08567562616658417,5.0,0.0,1.5,1.5361675488431064e-17,2.010375385672462e-17,1.0694390386365147e-20,2.987085641947455e-16,-2.292601959141262e-16,1.2950559872336158,2.008611134727085e-15,2.6325032255948444e-15,1.2587285727575754e-18,0.0,0.0,0.0,0.0,0.0,0.0,0.0,0.0,0.0,0.0,0.0,0.0,0.0,0.0,0.0,0.0,0.0,0.0,0.0,0.0,0.0,0.0,0.0,0.0
1762670794.048721,2.4226260244172504e-18,-1.5260350389882645e-18,0.08567562616658417,5.0,0.0,1.5,1.5361675488431064e-17,2.010375385672462e-17,1.0694390386365147e-20,2.987085641947455e-16,-2.292601959141262e-16,1.2950559872336158,2.008611134727085e-15,2.6325032255948444e-15,1.2587285727575754e-18,0.0,0.0,0.0,0.0,0.0,0.0,0.0,0.0,0.0,0.0,0.0,0.0,0.0,0.0,0.0,0.0,0.0,0.0,0.0,0.0,0.0,0.0,0.0,0.0
1762670794.0501537,2.4226260244172504e-18,-1.5260350389882645e-18,0.08567562616658417,5.0,0.0,1.5,1.5361675488431064e-17,2.010375385672462e-17,1.0694390386365147e-20,2.987085641947455e-16,-2.292601959141262e-16,1.2950559872336158,2.008611134727085e-15,2.6325032255948444e-15,1.2587285727575754e-18,0.0,0.0,0.0,0.0,0.0,0.0,0.0,0.0,0.0,0.0,0.0,0.0,0.0,0.0,0.0,0.0,0.0,0.0,0.0,0.0,0.0,0.0,0.0,0.0
1762670794.0518494,2.7061403092161826e-18,-1.7445515619339174e-18,0.08698588963477363,5.0,0.0,1.5,1.730075322271667e-17,2.2661342326196655e-17,6.159122674955829e-21,3.0222901228926105e-16,-2.336463987440051e-16,1.3243892914002093,2.0396286650871828e-15,2.666198607374732e-15,-1.638269608804253e-18,0.0,0.0,0.0,0.0,0.0,0.0,0.0,0.0,0.0,0.0,0.0,0.0,0.0,0.0,0.0,0.0,0.0,0.0,0.0,0.0,0.0,0.0,0.0,0.0
1762670794.053629,2.7061403092161826e-18,-1.7445515619339174e-18,0.08698588963477363,5.0,0.0,1.5,1.730075322271667e-17,2.2661342326196655e-17,6.159122674955829e-21,3.0222901228926105e-16,-2.336463987440051e-16,1.3243892914002093,2.0396286650871828e-15,2.666198607374732e-15,-1.638269608804253e-18,0.0,0.0,0.0,0.0,0.0,0.0,0.0,0.0,0.0,0.0,0.0,0.0,0.0,0.0,0.0,0.0,0.0,0.0,0.0,0.0,0.0,0.0,0.0,0.0
1762670794.0553133,2.7061403092161826e-18,-1.7445515619339174e-18,0.08698588963477363,5.0,0.0,1.5,1.730075322271667e-17,2.2661342326196655e-17,6.159122674955829e-21,3.0222901228926105e-16,-2.336463987440051e-16,1.3243892914002093,2.0396286650871828e-15,2.666198607374732e-15,-1.638269608804253e-18,0.0,0.0,0.0,0.0,0.0,0.0,0.0,0.0,0.0,0.0,0.0,0.0,0.0,0.0,0.0,0.0,0.0,0.0,0.0,0.0,0.0,0.0,0.0,0.0
1762670794.0573134,2.9950222101977004e-18,-1.9665546121562494e-18,0.08832234172151922,5.0,0.0,1.5,1.9263953068040897e-17,2.5261089545552477e-17,-1.2827518715799536e-21,3.0544083977972547e-16,-2.3642808821841166e-16,1.3475296895958362,2.056740391159856e-15,2.6927848794146674e-15,-4.540072040907958e-18,0.0,0.0,0.0,0.0,0.0,0.0,0.0,0.0,0.0,0.0,0.0,0.0,0.0,0.0,0.0,0.0,0.0,0.0,0.0,0.0,0.0,0.0,0.0,0.0
1762670794.0591943,2.9950222101977004e-18,-1.9665546121562494e-18,0.08832234172151922,5.0,0.0,1.5,1.9263953068040897e-17,2.5261089545552477e-17,-1.2827518715799536e-21,3.0544083977972547e-16,-2.3642808821841166e-16,1.3475296895958362,2.056740391159856e-15,2.6927848794146674e-15,-4.540072040907958e-18,0.0,0.0,0.0,0.0,0.0,0.0,0.0,0.0,0.0,0.0,0.0,0.0,0.0,0.0,0.0,0.0,0.0,0.0,0.0,0.0,0.0,0.0,0.0,0.0
1762670794.0606308,2.9950222101977004e-18,-1.9665546121562494e-18,0.08832234172151922,5.0,0.0,1.5,1.9263953068040897e-17,2.5261089545552477e-17,-1.2827518715799536e-21,3.0544083977972547e-16,-2.3642808821841166e-16,1.3475296895958362,2.056740391159856e-15,2.6927848794146674e-15,-4.540072040907958e-18,0.0,0.0,0.0,0.0,0.0,0.0,0.0,0.0,0.0,0.0,0.0,0.0,0.0,0.0,0.0,0.0,0.0,0.0,0.0,0.0,0.0,0.0,0.0,0.0
1762670794.0621843,3.2877566641956e-18,-2.192729668155424e-18,0.08967907153126993,5.0,0.0,1.5,2.12534238642776e-17,2.7896952871173404e-17,-4.612154188836786e-22,3.078490580618892e-16,-2.3885933375541037e-16,1.3650340768914333,2.0689149518378607e-15,2.713816293557349e-15,-1.859267758628421e-18,0.0,0.0,0.0,0.0,0.0,0.0,0.0,0.0,0.0,0.0,0.0,0.0,0.0,0.0,0.0,0.0,0.0,0.0,0.0,0.0,0.0,0.0,0.0,0.0
1762670794.0635855,3.2877566641956e-18,-2.192729668155424e-18,0.08967907153126993,5.0,0.0,1.5,2.12534238642776e-17,2.7896952871173404e-17,-4.612154188836786e-22,3.078490580618892e-16,-2.3885933375541037e-16,1.3650340768914333,2.0689149518378607e-15,2.713816293557349e-15,-1.859267758628421e-18,0.0,0.0,0.0,0.0,0.0,0.0,0.0,0.0,0.0,0.0,0.0,0.0,0.0,0.0,0.0,0.0,0.0,0.0,0.0,0.0,0.0,0.0,0.0,0.0
1762670794.0651069,3.2877566641956e-18,-2.192729668155424e-18,0.08967907153126993,5.0,0.0,1.5,2.12534238642776e-17,2.7896952871173404e-17,-4.612154188836786e-22,3.078490580618892e-16,-2.3885933375541037e-16,1.3650340768914333,2.0689149518378607e-15,2.713816293557349e-15,-1.859267758628421e-18,0.0,0.0,0.0,0.0,0.0,0.0,0.0,0.0,0.0,0.0,0.0,0.0,0.0,0.0,0.0,0.0,0.0,0.0,0.0,0.0,0.0,0.0,0.0,0.0
1762670794.066764,3.5790927357560114e-18,-2.4143176370610854e-18,0.09105070418845683,5.0,0.0,1.5,2.3198981473115392e-17,3.052692358229945e-17,3.074755505787068e-21,3.0728686409781615e-16,-2.36750878370458e-16,1.3774180834856704,2.044400743948269e-15,2.712065678442536e-15,8.383515984765296e-19,0.0,0.0,0.0,0.0,0.0,0.0,0.0,0.0,0.0,0.0,0.0,0.0,0.0,0.0,0.0,0.0,0.0,0.0,0.0,0.0,0.0,0.0,0.0,0.0
1762670794.068282,3.5790927357560114e-18,-2.4143176370610854e-18,0.09105070418845683,5.0,0.0,1.5,2.3198981473115392e-17,3.052692358229945e-17,3.074755505787068e-21,3.0728686409781615e-16,-2.36750878370458e-16,1.3774180834856704,2.044400743948269e-15,2.712065678442536e-15,8.383515984765296e-19,0.0,0.0,0.0,0.0,0.0,0.0,0.0,0.0,0.0,0.0,0.0,0.0,0.0,0.0,0.0,0.0,0.0,0.0,0.0,0.0,0.0,0.0,0.0,0.0
1762670794.0696924,3.5790927357560114e-18,-2.4143176370610854e-18,0.09105070418845683,5.0,0.0,1.5,2.3198981473115392e-17,3.052692358229945e-17,3.074755505787068e-21,3.0728686409781615e-16,-2.36750878370458e-16,1.3774180834856704,2.044400743948269e-15,2.712065678442536e-15,8.383515984765296e-19,0.0,0.0,0.0,0.0,0.0,0.0,0.0,0.0,0.0,0.0,0.0,0.0,0.0,0.0,0.0,0.0,0.0,0.0,0.0,0.0,0.0,0.0,0.0,0.0
1762670794.0713584,3.866420415899114e-18,-2.630086992942533e-18,0.09243236099578747,5.0,0.0,1.5,2.508772557890096e-17,3.312027210503125e-17,4.648166345709805e-21,3.039967750168221e-16,-2.318327153760351e-16,1.3851588893646227,1.995898975677085e-15,2.684323146017087e-15,1.2058812259718095e-18,0.0,0.0,0.0,0.0,0.0,0.0,0.0,0.0,0.0,0.0,0.0,0.0,0.0,0.0,0.0,0.0,0.0,0.0,0.0,0.0,0.0,0.0,0.0,0.0
1762670794.0727618,3.866420415899114e-18,-2.630086992942533e-18,0.09243236099578747,5.0,0.0,1.5,2.508772557890096e-17,3.312027210503125e-17,4.648166345709805e-21,3.039967750168221e-16,-2.318327153760351e-16,1.3851588893646227,1.995898975677085e-15,2.684323146017087e-15,1.2058812259718095e-18,0.0,0.0,0.0,0.0,0.0,0.0,0.0,0.0,0.0,0.0,0.0,0.0,0.0,0.0,0.0,0.0,0.0,0.0,0.0,0.0,0.0,0.0,0.0,0.0
1762670794.0742044,3.866420415899114e-18,-2.630086992942533e-18,0.09243236099578747,5.0,0.0,1.5,2.508772557890096e-17,3.312027210503125e-17,4.648166345709805e-21,3.039967750168221e-16,-2.318327153760351e-16,1.3851588893646227,1.995898975677085e-15,2.684323146017087e-15,1.2058812259718095e-18,0.0,0.0,0.0,0.0,0.0,0.0,0.0,0.0,0.0,0.0,0.0,0.0,0.0,0.0,0.0,0.0,0.0,0.0,0.0,0.0,0.0,0.0,0.0,0.0
1762670794.0757773,4.150340103253048e-18,-2.8441271370906047e-18,0.09381962231426319,5.0,0.0,1.5,2.6946298063287165e-17,3.568926392845818e-17,5.572995428586844e-21,2.997490111999222e-16,-2.2767052583233416e-16,1.3886978551046039,1.949470783571943e-15,2.6505914214203366e-15,1.0653551849410661e-18,0.0,0.0,0.0,0.0,0.0,0.0,0.0,0.0,0.0,0.0,0.0,0.0,0.0,0.0,0.0,0.0,0.0,0.0,0.0,0.0,0.0,0.0,0.0,0.0
1762670794.07717,4.150340103253048e-18,-2.8441271370906047e-18,0.09381962231426319,5.0,0.0,1.5,2.6946298063287165e-17,3.568926392845818e-17,5.572995428586844e-21,2.997490111999222e-16,-2.2767052583233416e-16,1.3886978551046039,1.949470783571943e-15,2.6505914214203366e-15,1.0653551849410661e-18,0.0,0.0,0.0,0.0,0.0,0.0,0.0,0.0,0.0,0.0,0.0,0.0,0.0,0.0,0.0,0.0,0.0,0.0,0.0,0.0,0.0,0.0,0.0,0.0
1762670794.0786138,4.150340103253048e-18,-2.8441271370906047e-18,0.09381962231426319,5.0,0.0,1.5,2.6946298063287165e-17,3.568926392845818e-17,5.572995428586844e-21,2.997490111999222e-16,-2.2767052583233416e-16,1.3886978551046039,1.949470783571943e-15,2.6505914214203366e-15,1.0653551849410661e-18,0.0,0.0,0.0,0.0,0.0,0.0,0.0,0.0,0.0,0.0,0.0,0.0,0.0,0.0,0.0,0.0,0.0,0.0,0.0,0.0,0.0,0.0,0.0,0.0
1762670794.0803237,4.431622207680536e-18,-3.0583631798258725e-18,0.0952084929869825,5.0,0.0,1.5,2.8792518132501406e-17,3.823791128489148e-17,1.5024271393699702e-20,2.9549694641967454e-16,-2.249481188437905e-16,1.3884429805324061,1.913678895642424e-15,2.616615941037615e-15,5.258315449147927e-18,0.0,0.0,0.0,0.0,0.0,0.0,0.0,0.0,0.0,0.0,0.0,0.0,0.0,0.0,0.0,0.0,0.0,0.0,0.0,0.0,0.0,0.0,0.0,0.0
1762670794.0818226,4.431622207680536e-18,-3.0583631798258725e-18,0.0952084929869825,5.0,0.0,1.5,2.8792518132501406e-17,3.823791128489148e-17,1.5024271393699702e-20,2.9549694641967454e-16,-2.249481188437905e-16,1.3884429805324061,1.913678895642424e-15,2.616615941037615e-15,5.258315449147927e-18,0.0,0.0,0.0,0.0,0.0,0.0,0.0,0.0,0.0,0.0,0.0,0.0,0.0,0.0,0.0,0.0,0.0,0.0,0.0,0.0,0.0,0.0,0.0,0.0
1762670794.083174,4.431622207680536e-18,-3.0583631798258725e-18,0.0952084929869825,5.0,0.0,1.5,2.8792518132501406e-17,3.823791128489148e-17,1.5024271393699702e-20,2.9549694641967454e-16,-2.249481188437905e-16,1.3884429805324061,1.913678895642424e-15,2.616615941037615e-15,5.258315449147927e-18,0.0,0.0,0.0,0.0,0.0,0.0,0.0,0.0,0.0,0.0,0.0,0.0,0.0,0.0,0.0,0.0,0.0,0.0,0.0,0.0,0.0,0.0,0.0,0.0
1762670794.0845673,4.706895550994943e-18,-3.2683488643622234e-18,0.09659537014013726,5.0,0.0,1.5,3.058049806957758e-17,4.0737957001753944e-17,2.028258683176659e-20,2.896016172826805e-16,-2.20739930730522e-16,1.3847712022220573,1.860899181218268e-15,2.5690839264014512e-15,5.258315210078956e-18,0.0,0.0,0.0,0.0,0.0,0.0,0.0,0.0,0.0,0.0,0.0,0.0,0.0,0.0,0.0,0.0,0.0,0.0,0.0,0.0,0.0,0.0,0.0,0.0
1762670794.0859547,4.706895550994943e-18,-3.2683488643622234e-18,0.09659537014013726,5.0,0.0,1.5,3.058049806957758e-17,4.0737957001753944e-17,2.028258683176659e-20,2.896016172826805e-16,-2.20739930730522e-16,1.3847712022220573,1.860899181218268e-15,2.5690839264014512e-15,5.258315210078956e-18,0.0,0.0,0.0,0.0,0.0,0.0,0.0,0.0,0.0,0.0,0.0,0.0,0.0,0.0,0.0,0.0,0.0,0.0,0.0,0.0,0.0,0.0,0.0,0.0
1762670794.0875316,4.706895550994943e-18,-3.2683488643622234e-18,0.09659537014013726,5.0,0.0,1.5,3.058049806957758e-17,4.0737957001753944e-17,2.028258683176659e-20,2.896016172826805e-16,-2.20739930730522e-16,1.3847712022220573,1.860899181218268e-15,2.5690839264014512e-15,5.258315210078956e-18,0.0,0.0,0.0,0.0,0.0,0.0,0.0,0.0,0.0,0.0,0.0,0.0,0.0,0.0,0.0,0.0,0.0,0.0,0.0,0.0,0.0,0.0,0.0,0.0
1762670794.0893698,4.976240004339867e-18,-3.475517901385056e-18,0.0979770132052383,5.0,0.0,1.5,3.232681560221467e-17,4.3189715156806986e-17,1.8823174579356625e-20,2.8299708499658393e-16,-2.165919946869984e-16,1.3780305401177457,1.808503388905614e-15,2.515572287568228e-15,1.8994512132989995e-18,0.0,0.0,0.0,0.0,0.0,0.0,0.0,0.0,0.0,0.0,0.0,0.0,0.0,0.0,0.0,0.0,0.0,0.0,0.0,0.0,0.0,0.0,0.0,0.0
1762670794.090942,4.976240004339867e-18,-3.475517901385056e-18,0.0979770132052383,5.0,0.0,1.5,3.232681560221467e-17,4.3189715156806986e-17,1.8823174579356625e-20,2.8299708499658393e-16,-2.165919946869984e-16,1.3780305401177457,1.808503388905614e-15,2.515572287568228e-15,1.8994512132989995e-18,0.0,0.0,0.0,0.0,0.0,0.0,0.0,0.0,0.0,0.0,0.0,0.0,0.0,0.0,0.0,0.0,0.0,0.0,0.0,0.0,0.0,0.0,0.0,0.0
1762670794.092286,4.976240004339867e-18,-3.475517901385056e-18,0.0979770132052383,5.0,0.0,1.5,3.232681560221467e-17,4.3189715156806986e-17,1.8823174579356625e-20,2.8299708499658393e-16,-2.165919946869984e-16,1.3780305401177457,1.808503388905614e-15,2.515572287568228e-15,1.8994512132989995e-18,0.0,0.0,0.0,0.0,0.0,0.0,0.0,0.0,0.0,0.0,0.0,0.0,0.0,0.0,0.0,0.0,0.0,0.0,0.0,0.0,0.0,0.0,0.0,0.0
1762670794.0940325,5.237123295455484e-18,-3.676088218269692e-18,0.09935051601657055,5.0,0.0,1.5,3.4013288080581187e-17,4.5572477789058497e-17,9.468437261603597e-21,2.7481370292564745e-16,-2.1062290567645498e-16,1.3685421029259968,1.7477532103815222e-15,2.4493160718640496e-15,-3.7276428796455416e-18,0.0,0.0,0.0,0.0,0.0,0.0,0.0,0.0,0.0,0.0,0.0,0.0,0.0,0.0,0.0,0.0,0.0,0.0,0.0,0.0,0.0,0.0,0.0,0.0
1762670794.095631,5.237123295455484e-18,-3.676088218269692e-18,0.09935051601657055,5.0,0.0,1.5,3.4013288080581187e-17,4.5572477789058497e-17,9.468437261603597e-21,2.7481370292564745e-16,-2.1062290567645498e-16,1.3685421029259968,1.7477532103815222e-15,2.4493160718640496e-15,-3.7276428796455416e-18,0.0,0.0,0.0,0.0,0.0,0.0,0.0,0.0,0.0,0.0,0.0,0.0,0.0,0.0,0.0,0.0,0.0,0.0,0.0,0.0,0.0,0.0,0.0,0.0
1762670794.097123,5.237123295455484e-18,-3.676088218269692e-18,0.09935051601657055,5.0,0.0,1.5,3.4013288080581187e-17,4.5572477789058497e-17,9.468437261603597e-21,2.7481370292564745e-16,-2.1062290567645498e-16,1.3685421029259968,1.7477532103815222e-15,2.4493160718640496e-15,-3.7276428796455416e-18,0.0,0.0,0.0,0.0,0.0,0.0,0.0,0.0,0.0,0.0,0.0,0.0,0.0,0.0,0.0,0.0,0.0,0.0,0.0,0.0,0.0,0.0,0.0,0.0
1762670794.0985923,5.496811891771001e-18,-3.875729002065613e-18,0.10071452666287817,5.0,0.0,1.5,3.568613040004441e-17,4.794564993184173e-17,-6.096411034798898e-23,2.700611205096094e-16,-2.0710926571875956e-16,1.3588639851855766,1.7101419743319301e-15,2.410948703151811e-15,-6.628521426358615e-18,0.0,0.0,0.0,0.0,0.0,0.0,0.0,0.0,0.0,0.0,0.0,0.0,0.0,0.0,0.0,0.0,0.0,0.0,0.0,0.0,0.0,0.0,0.0,0.0
1762670794.0999858,5.496811891771001e-18,-3.875729002065613e-18,0.10071452666287817,5.0,0.0,1.5,3.568613040004441e-17,4.794564993184173e-17,-6.096411034798898e-23,2.700611205096094e-16,-2.0710926571875956e-16,1.3588639851855766,1.7101419743319301e-15,2.410948703151811e-15,-6.628521426358615e-18,0.0,0.0,0.0,0.0,0.0,0.0,0.0,0.0,0.0,0.0,0.0,0.0,0.0,0.0,0.0,0.0,0.0,0.0,0.0,0.0,0.0,0.0,0.0,0.0
1762670794.1013517,5.496811891771001e-18,-3.875729002065613e-18,0.10071452666287817,5.0,0.0,1.5,3.568613040004441e-17,4.794564993184173e-17,-6.096411034798898e-23,2.700611205096094e-16,-2.0710926571875956e-16,1.3588639851855766,1.7101419743319301e-15,2.410948703151811e-15,-6.628521426358615e-18,0.0,0.0,0.0,0.0,0.0,0.0,0.0,0.0,0.0,0.0,0.0,0.0,0.0,0.0,0.0,0.0,0.0,0.0,0.0,0.0,0.0,0.0,0.0,0.0
1762670794.1028867,5.761132035556506e-18,-4.0787665522828454e-18,0.10206848564806374,5.0,0.0,1.5,3.739625091068582e-17,5.0356860155965485e-17,-6.6894852317405464e-21,2.700611205096093e-16,-2.0710926571875953e-16,1.3490539851855765,1.710099232865306e-15,2.4114726169217528e-15,-6.628520816527815e-18,0.0,0.0,0.0,0.0,0.0,0.0,0.0,0.0,0.0,0.0,0.0,0.0,0.0,0.0,0.0,0.0,0.0,0.0,0.0,0.0,0.0,0.0,0.0,0.0
1762670794.1043174,5.761132035556506e-18,-4.0787665522828454e-18,0.10206848564806374,5.0,0.0,1.5,3.739625091068582e-17,5.0356860155965485e-17,-6.6894852317405464e-21,2.700611205096093e-16,-2.0710926571875953e-16,1.3490539851855765,1.710099232865306e-15,2.4114726169217528e-15,-6.628520816527815e-18,0.0,0.0,0.0,0.0,0.0,0.0,0.0,0.0,0.0,0.0,0.0,0.0,0.0,0.0,0.0,0.0,0.0,0.0,0.0,0.0,0.0,0.0,0.0,0.0
1762670794.1056974,5.761132035556506e-18,-4.0787665522828454e-18,0.10206848564806374,5.0,0.0,1.5,3.739625091068582e-17,5.0356860155965485e-17,-6.6894852317405464e-21,2.700611205096093e-16,-2.0710926571875953e-16,1.3490539851855765,1.710099232865306e-15,2.4114726169217528e-15,-6.628520816527815e-18,0.0,0.0,0.0,0.0,0.0,0.0,0.0,0.0,0.0,0.0,0.0,0.0,0.0,0.0,0.0,0.0,0.0,0.0,0.0,0.0,0.0,0.0,0.0,0.0
1762670794.1072738,6.025452393497958e-18,-4.28180420294846e-18,0.10341263463324932,5.0,0.0,1.5,3.910632923300665e-17,5.27679804345918e-17,-1.3318005743605626e-20,2.7006112050960936e-16,-2.0710926571875956e-16,1.3392439851855764,1.7100575931496653e-15,2.411138820090903e-15,-6.628520207303565e-18,0.0,0.0,0.0,0.0,0.0,0.0,0.0,0.0,0.0,0.0,0.0,0.0,0.0,0.0,0.0,0.0,0.0,0.0,0.0,0.0,0.0,0.0,0.0,0.0
1762670794.1086822,6.025452393497958e-18,-4.28180420294846e-18,0.10341263463324932,5.0,0.0,1.5,3.910632923300665e-17,5.27679804345918e-17,-1.3318005743605626e-20,2.7006112050960936e-16,-2.0710926571875956e-16,1.3392439851855764,1.7100575931496653e-15,2.411138820090903e-15,-6.628520207303565e-18,0.0,0.0,0.0,0.0,0.0,0.0,0.0,0.0,0.0,0.0,0.0,0.0,0.0,0.0,0.0,0.0,0.0,0.0,0.0,0.0,0.0,0.0,0.0,0.0
1762670794.1100328,6.025452393497958e-18,-4.28180420294846e-18,0.10341263463324932,5.0,0.0,1.5,3.910632923300665e-17,5.27679804345918e-17,-1.3318005743605626e-20,2.7006112050960936e-16,-2.0710926571875956e-16,1.3392439851855764,1.7100575931496653e-15,2.411138820090903e-15,-6.628520207303565e-18,0.0,0.0,0.0,0.0,0.0,0.0,0.0,0.0,0.0,0.0,0.0,0.0,0.0,0.0,0.0,0.0,0.0,0.0,0.0,0.0,0.0,0.0,0.0,0.0
1762670794.1114438,6.2897723654170645e-18,-4.484841951471413e-18,0.1047469736184349,5.0,0.0,1.5,4.0816366455245415e-17,5.5179262842602927e-17,-1.9946525646549477e-20,2.7006112050960936e-16,-2.0710926571875953e-16,1.3294339851855763,1.7100170282695854e-15,2.4110569304980465e-15,-6.628519598685263e-18,0.0,0.0,0.0,0.0,0.0,0.0,0.0,0.0,0.0,0.0,0.0,0.0,0.0,0.0,0.0,0.0,0.0,0.0,0.0,0.0,0.0,0.0,0.0,0.0
1762670794.1128926,6.2897723654170645e-18,-4.484841951471413e-18,0.1047469736184349,5.0,0.0,1.5,4.0816366455245415e-17,5.5179262842602927e-17,-1.9946525646549477e-20,2.7006112050960936e-16,-2.0710926571875953e-16,1.3294339851855763,1.7100170282695854e-15,2.4110569304980465e-15,-6.628519598685263e-18,0.0,0.0,0.0,0.0,0.0,0.0,0.0,0.0,0.0,0.0,0.0,0.0,0.0,0.0,0.0,0.0,0.0,0.0,0.0,0.0,0.0,0.0,0.0,0.0
1762670794.114483,6.2897723654170645e-18,-4.484841951471413e-18,0.1047469736184349,5.0,0.0,1.5,4.0816366455245415e-17,5.5179262842602927e-17,-1.9946525646549477e-20,2.7006112050960936e-16,-2.0710926571875953e-16,1.3294339851855763,1.7100170282695854e-15,2.4110569304980465e-15,-6.628519598685263e-18,0.0,0.0,0.0,0.0,0.0,0.0,0.0,0.0,0.0,0.0,0.0,0.0,0.0,0.0,0.0,0.0,0.0,0.0,0.0,0.0,0.0,0.0,0.0,0.0
1762670794.1161826,6.554093113267617e-18,-4.6878797953239684e-18,0.10607150260362047,5.0,0.0,1.5,4.252636363905112e-17,5.759021935940652e-17,-2.6575044941177744e-20,2.7006112050960936e-16,-2.071092657187595e-16,1.3196239851855762,1.7099775119588474e-15,2.4108569614027383e-15,-6.628518990672306e-18,0.0,0.0,0.0,0.0,0.0,0.0,0.0,0.0,0.0,0.0,0.0,0.0,0.0,0.0,0.0,0.0,0.0,0.0,0.0,0.0,0.0,0.0,0.0,0.0
1762670794.1176467,6.554093113267617e-18,-4.6878797953239684e-18,0.10607150260362047,5.0,0.0,1.5,4.252636363905112e-17,5.759021935940652e-17,-2.6575044941177744e-20,2.7006112050960936e-16,-2.071092657187595e-16,1.3196239851855762,1.7099775119588474e-15,2.4108569614027383e-15,-6.628518990672306e-18,0.0,0.0,0.0,0.0,0.0,0.0,0.0,0.0,0.0,0.0,0.0,0.0,0.0,0.0,0.0,0.0,0.0,0.0,0.0,0.0,0.0,0.0,0.0,0.0
1762670794.1189525,6.554093113267617e-18,-4.6878797953239684e-18,0.10607150260362047,5.0,0.0,1.5,4.252636363905112e-17,5.759021935940652e-17,-2.6575044941177744e-20,2.7006112050960936e-16,-2.071092657187595e-16,1.3196239851855762,1.7099775119588474e-15,2.4108569614027383e-15,-6.628518990672306e-18,0.0,0.0,0.0,0.0,0.0,0.0,0.0,0.0,0.0,0.0,0.0,0.0,0.0,0.0,0.0,0.0,0.0,0.0,0.0,0.0,0.0,0.0,0.0,0.0
1762670794.120473,6.818414331153977e-18,-4.8909177320401726e-18,0.10738622158880605,5.0,0.0,1.5,4.423632182012463e-17,6.000097846117117e-17,-3.320356362809547e-20,2.700611205096094e-16,-2.0710926571875953e-16,1.3098139851855761,1.7099390185848272e-15,2.4106620798447135e-15,-6.628518383264093e-18,0.0,0.0,0.0,0.0,0.0,0.0,0.0,0.0,0.0,0.0,0.0,0.0,0.0,0.0,0.0,0.0,0.0,0.0,0.0,0.0,0.0,0.0,0.0,0.0
1762670794.1220748,6.818414331153977e-18,-4.8909177320401726e-18,0.10738622158880605,5.0,0.0,1.5,4.423632182012463e-17,6.000097846117117e-17,-3.320356362809547e-20,2.700611205096094e-16,-2.0710926571875953e-16,1.3098139851855761,1.7099390185848272e-15,2.4106620798447135e-15,-6.628518383264093e-18,0.0,0.0,0.0,0.0,0.0,0.0,0.0,0.0,0.0,0.0,0.0,0.0,0.0,0.0,0.0,0.0,0.0,0.0,0.0,0.0,0.0,0.0,0.0,0.0
1762670794.1238067,6.818414331153977e-18,-4.8909177320401726e-18,0.10738622158880605,5.0,0.0,1.5,4.423632182012463e-17,6.000097846117117e-17,-3.320356362809547e-20,2.700611205096094e-16,-2.0710926571875953e-16,1.3098139851855761,1.7099390185848272e-15,2.4106620798447135e-15,-6.628518383264093e-18,0.0,0.0,0.0,0.0,0.0,0.0,0.0,0.0,0.0,0.0,0.0,0.0,0.0,0.0,0.0,0.0,0.0,0.0,0.0,0.0,0.0,0.0,0.0,0.0
1762670794.1255093,7.082736007108756e-18,-5.09395575921436e-18,0.10869113057399163,5.0,0.0,1.5,4.594624200884462e-17,6.24115451742e-17,-3.983208170790711e-20,2.700611205096094e-16,-2.0710926571875956e-16,1.300003985185576,1.7099015231332604e-15,2.4104721638419533e-15,-6.628517776460021e-18,0.0,0.0,0.0,0.0,0.0,0.0,0.0,0.0,0.0,0.0,0.0,0.0,0.0,0.0,0.0,0.0,0.0,0.0,0.0,0.0,0.0,0.0,0.0,0.0
1762670794.1269336,7.082736007108756e-18,-5.09395575921436e-18,0.10869113057399163,5.0,0.0,1.5,4.594624200884462e-17,6.24115451742e-17,-3.983208170790711e-20,2.700611205096094e-16,-2.0710926571875956e-16,1.300003985185576,1.7099015231332604e-15,2.4104721638419533e-15,-6.628517776460021e-18,0.0,0.0,0.0,0.0,0.0,0.0,0.0,0.0,0.0,0.0,0.0,0.0,0.0,0.0,0.0,0.0,0.0,0.0,0.0,0.0,0.0,0.0,0.0,0.0
1762670794.1284628,7.082736007108756e-18,-5.09395575921436e-18,0.10869113057399163,5.0,0.0,1.5,4.594624200884462e-17,6.24115451742e-17,-3.983208170790711e-20,2.700611205096094e-16,-2.0710926571875956e-16,1.300003985185576,1.7099015231332604e-15,2.4104721638419533e-15,-6.628517776460021e-18,0.0,0.0,0.0,0.0,0.0,0.0,0.0,0.0,0.0,0.0,0.0,0.0,0.0,0.0,0.0,0.0,0.0,0.0,0.0,0.0,0.0,0.0,0.0,0.0
1762670794.1301465,7.347058129451553e-18,-5.296993874499706e-18,0.10998622955917721,5.0,0.0,1.5,4.765612519087849e-17,6.482192440426136e-17,-4.646059918121648e-20,2.700611205096094e-16,-2.071092657187595e-16,1.290193985185576,1.7098650011933738e-15,2.410287094295439e-15,-6.6285171702594894e-18,0.0,0.0,0.0,0.0,0.0,0.0,0.0,0.0,0.0,0.0,0.0,0.0,0.0,0.0,0.0,0.0,0.0,0.0,0.0,0.0,0.0,0.0,0.0,0.0
1762670794.1316478,7.347058129451553e-18,-5.296993874499706e-18,0.10998622955917721,5.0,0.0,1.5,4.765612519087849e-17,6.482192440426136e-17,-4.646059918121648e-20,2.700611205096094e-16,-2.071092657187595e-16,1.290193985185576,1.7098650011933738e-15,2.410287094295439e-15,-6.6285171702594894e-18,0.0,0.0,0.0,0.0,0.0,0.0,0.0,0.0,0.0,0.0,0.0,0.0,0.0,0.0,0.0,0.0,0.0,0.0,0.0,0.0,0.0,0.0,0.0,0.0
1762670794.133028,7.347058129451553e-18,-5.296993874499706e-18,0.10998622955917721,5.0,0.0,1.5,4.765612519087849e-17,6.482192440426136e-17,-4.646059918121648e-20,2.700611205096094e-16,-2.071092657187595e-16,1.290193985185576,1.7098650011933738e-15,2.410287094295439e-15,-6.6285171702594894e-18,0.0,0.0,0.0,0.0,0.0,0.0,0.0,0.0,0.0,0.0,0.0,0.0,0.0,0.0,0.0,0.0,0.0,0.0,0.0,0.0,0.0,0.0,0.0,0.0
1762670794.1344635,7.61138068678217e-18,-5.5000339761475776e-18,0.11127151854436279,5.0,0.0,1.5,4.93651741006514e-17,6.723212093943771e-17,-5.3089116048626844e-20,2.7006112050960946e-16,-2.0710926571875953e-16,1.2803839851855758,1.708233002790276e-15,2.410106754921261e-15,-6.628516564661899e-18,0.0,0.0,0.0,0.0,0.0,0.0,0.0,0.0,0.0,0.0,0.0,0.0,0.0,0.0,0.0,0.0,0.0,0.0,0.0,0.0,0.0,0.0,0.0,0.0
1762670794.1357,7.61138068678217e-18,-5.5000339761475776e-18,0.11127151854436279,5.0,0.0,1.5,4.93651741006514e-17,6.723212093943771e-17,-5.3089116048626844e-20,2.7006112050960946e-16,-2.0710926571875953e-16,1.2803839851855758,1.708233002790276e-15,2.410106754921261e-15,-6.628516564661899e-18,0.0,0.0,0.0,0.0,0.0,0.0,0.0,0.0,0.0,0.0,0.0,0.0,0.0,0.0,0.0,0.0,0.0,0.0,0.0,0.0,0.0,0.0,0.0,0.0
1762670794.137016,7.61138068678217e-18,-5.5000339761475776e-18,0.11127151854436279,5.0,0.0,1.5,4.93651741006514e-17,6.723212093943771e-17,-5.3089116048626844e-20,2.7006112050960946e-16,-2.0710926571875953e-16,1.2803839851855758,1.708233002790276e-15,2.410106754921261e-15,-6.628516564661899e-18,0.0,0.0,0.0,0.0,0.0,0.0,0.0,0.0,0.0,0.0,0.0,0.0,0.0,0.0,0.0,0.0,0.0,0.0,0.0,0.0,0.0,0.0,0.0,0.0
1762670794.1385996,7.875702787193018e-18,-5.7030766952947776e-18,0.11254699752954837,5.0,0.0,1.5,5.107312366070633e-17,6.96425093809169e-17,-5.971763231074084e-20,2.700611205096094e-16,-2.071092657187595e-16,1.2705739851855757,1.7068680424699008e-15,2.4106708373986748e-15,-6.628515959666648e-18,0.0,0.0,0.0,0.0,0.0,0.0,0.0,0.0,0.0,0.0,0.0,0.0,0.0,0.0,0.0,0.0,0.0,0.0,0.0,0.0,0.0,0.0,0.0,0.0
1762670794.1402552,7.875702787193018e-18,-5.7030766952947776e-18,0.11254699752954837,5.0,0.0,1.5,5.107312366070633e-17,6.96425093809169e-17,-5.971763231074084e-20,2.700611205096094e-16,-2.071092657187595e-16,1.2705739851855757,1.7068680424699008e-15,2.4106708373986748e-15,-6.628515959666648e-18,0.0,0.0,0.0,0.0,0.0,0.0,0.0,0.0,0.0,0.0,0.0,0.0,0.0,0.0,0.0,0.0,0.0,0.0,0.0,0.0,0.0,0.0,0.0,0.0
1762670794.141803,7.875702787193018e-18,-5.7030766952947776e-18,0.11254699752954837,5.0,0.0,1.5,5.107312366070633e-17,6.96425093809169e-17,-5.971763231074084e-20,2.700611205096094e-16,-2.071092657187595e-16,1.2705739851855757,1.7068680424699008e-15,2.4106708373986748e-15,-6.628515959666648e-18,0.0,0.0,0.0,0.0,0.0,0.0,0.0,0.0,0.0,0.0,0.0,0.0,0.0,0.0,0.0,0.0,0.0,0.0,0.0,0.0,0.0,0.0,0.0,0.0
1762670794.143278,8.140024126490267e-18,-5.9061239302298354e-18,0.11381266651473394,5.0,0.0,1.5,5.277917658986115e-17,7.205321749010806e-17,-6.634614796816048e-20,2.700611205096094e-16,-2.0710926571875956e-16,1.2607639851855756,1.7052379734394235e-15,2.4111160513144304e-15,-6.628515355273139e-18,0.0,0.0,0.0,0.0,0.0,0.0,0.0,0.0,0.0,0.0,0.0,0.0,0.0,0.0,0.0,0.0,0.0,0.0,0.0,0.0,0.0,0.0,0.0,0.0
1762670794.1446743,8.140024126490267e-18,-5.9061239302298354e-18,0.11381266651473394,5.0,0.0,1.5,5.277917658986115e-17,7.205321749010806e-17,-6.634614796816048e-20,2.700611205096094e-16,-2.0710926571875956e-16,1.2607639851855756,1.7052379734394235e-15,2.4111160513144304e-15,-6.628515355273139e-18,0.0,0.0,0.0,0.0,0.0,0.0,0.0,0.0,0.0,0.0,0.0,0.0,0.0,0.0,0.0,0.0,0.0,0.0,0.0,0.0,0.0,0.0,0.0,0.0
1762670794.1461964,8.140024126490267e-18,-5.9061239302298354e-18,0.11381266651473394,5.0,0.0,1.5,5.277917658986115e-17,7.205321749010806e-17,-6.634614796816048e-20,2.700611205096094e-16,-2.0710926571875956e-16,1.2607639851855756,1.7052379734394235e-15,2.4111160513144304e-15,-6.628515355273139e-18,0.0,0.0,0.0,0.0,0.0,0.0,0.0,0.0,0.0,0.0,0.0,0.0,0.0,0.0,0.0,0.0,0.0,0.0,0.0,0.0,0.0,0.0,0.0,0.0
1762670794.1476014,8.404344987721607e-18,-6.109175045165243e-18,0.11506852549991951,5.0,0.0,1.5,5.4483599918868687e-17,7.446412638698199e-17,-7.297466302148723e-20,2.700611205096094e-16,-2.071092657187595e-16,1.2509539851855755,1.703608838307352e-15,2.4108257592483727e-15,-6.6285147514807735e-18,0.0,0.0,0.0,0.0,0.0,0.0,0.0,0.0,0.0,0.0,0.0,0.0,0.0,0.0,0.0,0.0,0.0,0.0,0.0,0.0,0.0,0.0,0.0,0.0
1762670794.148962,8.404344987721607e-18,-6.109175045165243e-18,0.11506852549991951,5.0,0.0,1.5,5.4483599918868687e-17,7.446412638698199e-17,-7.297466302148723e-20,2.700611205096094e-16,-2.071092657187595e-16,1.2509539851855755,1.703608838307352e-15,2.4108257592483727e-15,-6.6285147514807735e-18,0.0,0.0,0.0,0.0,0.0,0.0,0.0,0.0,0.0,0.0,0.0,0.0,0.0,0.0,0.0,0.0,0.0,0.0,0.0,0.0,0.0,0.0,0.0,0.0
1762670794.1502852,8.404344987721607e-18,-6.109175045165243e-18,0.11506852549991951,5.0,0.0,1.5,5.4483599918868687e-17,7.446412638698199e-17,-7.297466302148723e-20,2.700611205096094e-16,-2.071092657187595e-16,1.2509539851855755,1.703608838307352e-15,2.4108257592483727e-15,-6.6285147514807735e-18,0.0,0.0,0.0,0.0,0.0,0.0,0.0,0.0,0.0,0.0,0.0,0.0,0.0,0.0,0.0,0.0,0.0,0.0,0.0,0.0,0.0,0.0,0.0,0.0
1762670794.1515813,8.66866624141626e-18,-6.3122300379048376e-18,0.11631457448510509,5.0,0.0,1.5,5.618639457011799e-17,7.687487044926359e-17,-7.960317747132196e-20,2.7006112050960946e-16,-2.0710926571875956e-16,1.2411439851855754,1.7019806141484164e-15,2.4106630726632242e-15,-6.628514148288953e-18,0.0,0.0,0.0,0.0,0.0,0.0,0.0,0.0,0.0,0.0,0.0,0.0,0.0,0.0,0.0,0.0,0.0,0.0,0.0,0.0,0.0,0.0,0.0,0.0
1762670794.153012,8.66866624141626e-18,-6.3122300379048376e-18,0.11631457448510509,5.0,0.0,1.5,5.618639457011799e-17,7.687487044926359e-17,-7.960317747132196e-20,2.7006112050960946e-16,-2.0710926571875956e-16,1.2411439851855754,1.7019806141484164e-15,2.4106630726632242e-15,-6.628514148288953e-18,0.0,0.0,0.0,0.0,0.0,0.0,0.0,0.0,0.0,0.0,0.0,0.0,0.0,0.0,0.0,0.0,0.0,0.0,0.0,0.0,0.0,0.0,0.0,0.0
1762670794.1545756,8.66866624141626e-18,-6.3122300379048376e-18,0.11631457448510509,5.0,0.0,1.5,5.618639457011799e-17,7.687487044926359e-17,-7.960317747132196e-20,2.7006112050960946e-16,-2.0710926571875956e-16,1.2411439851855754,1.7019806141484164e-15,2.4106630726632242e-15,-6.628514148288953e-18,0.0,0.0,0.0,0.0,0.0,0.0,0.0,0.0,0.0,0.0,0.0,0.0,0.0,0.0,0.0,0.0,0.0,0.0,0.0,0.0,0.0,0.0,0.0,0.0
1762670794.1562576,8.932987877448421e-18,-6.515287005765598e-18,0.11755081347029066,5.0,0.0,1.5,5.788835967047794e-17,7.928545392979216e-17,-8.623169131826486e-20,2.700611205096094e-16,-2.071092657187595e-16,1.2313339851855754,1.701949704744061e-15,2.4105045787352477e-15,-6.62851354569708e-18,0.0,0.0,0.0,0.0,0.0,0.0,0.0,0.0,0.0,0.0,0.0,0.0,0.0,0.0,0.0,0.0,0.0,0.0,0.0,0.0,0.0,0.0,0.0,0.0
1762670794.1576135,8.932987877448421e-18,-6.515287005765598e-18,0.11755081347029066,5.0,0.0,1.5,5.788835967047794e-17,7.928545392979216e-17,-8.623169131826486e-20,2.700611205096094e-16,-2.071092657187595e-16,1.2313339851855754,1.701949704744061e-15,2.4105045787352477e-15,-6.62851354569708e-18,0.0,0.0,0.0,0.0,0.0,0.0,0.0,0.0,0.0,0.0,0.0,0.0,0.0,0.0,0.0,0.0,0.0,0.0,0.0,0.0,0.0,0.0,0.0,0.0
1762670794.1589205,8.932987877448421e-18,-6.515287005765598e-18,0.11755081347029066,5.0,0.0,1.5,5.788835967047794e-17,7.928545392979216e-17,-8.623169131826486e-20,2.700611205096094e-16,-2.071092657187595e-16,1.2313339851855754,1.701949704744061e-15,2.4105045787352477e-15,-6.62851354569708e-18,0.0,0.0,0.0,0.0,0.0,0.0,0.0,0.0,0.0,0.0,0.0,0.0,0.0,0.0,0.0,0.0,0.0,0.0,0.0,0.0,0.0,0.0,0.0,0.0
1762670794.1602561,9.197309885956081e-18,-6.718345313287719e-18,0.11877724245547623,5.0,0.0,1.5,5.958976211306591e-17,8.169588097061073e-17,-9.286020456291562e-20,2.7006112050960946e-16,-2.0710926571875956e-16,1.2215239851855753,1.7016535504700212e-15,2.410350176638346e-15,-6.628512943704559e-18,0.0,0.0,0.0,0.0,0.0,0.0,0.0,0.0,0.0,0.0,0.0,0.0,0.0,0.0,0.0,0.0,0.0,0.0,0.0,0.0,0.0,0.0,0.0,0.0
1762670794.1616685,9.197309885956081e-18,-6.718345313287719e-18,0.11877724245547623,5.0,0.0,1.5,5.958976211306591e-17,8.169588097061073e-17,-9.286020456291562e-20,2.7006112050960946e-16,-2.0710926571875956e-16,1.2215239851855753,1.7016535504700212e-15,2.410350176638346e-15,-6.628512943704559e-18,0.0,0.0,0.0,0.0,0.0,0.0,0.0,0.0,0.0,0.0,0.0,0.0,0.0,0.0,0.0,0.0,0.0,0.0,0.0,0.0,0.0,0.0,0.0,0.0
1762670794.163141,9.197309885956081e-18,-6.718345313287719e-18,0.11877724245547623,5.0,0.0,1.5,5.958976211306591e-17,8.169588097061073e-17,-9.286020456291562e-20,2.7006112050960946e-16,-2.0710926571875956e-16,1.2215239851855753,1.7016535504700212e-15,2.410350176638346e-15,-6.628512943704559e-18,0.0,0.0,0.0,0.0,0.0,0.0,0.0,0.0,0.0,0.0,0.0,0.0,0.0,0.0,0.0,0.0,0.0,0.0,0.0,0.0,0.0,0.0,0.0,0.0
1762670794.1646008,9.461632257314445e-18,-6.9214030579657005e-18,0.1199938614406618,5.0,0.0,1.5,6.129140095019249e-17,8.410615561413331e-17,-9.948871720587329e-20,2.7006112050960936e-16,-2.0710926571875953e-16,1.2117139851855752,1.701624254129091e-15,2.410199767931193e-15,-6.628512342310792e-18,0.0,0.0,0.0,0.0,0.0,0.0,0.0,0.0,0.0,0.0,0.0,0.0,0.0,0.0,0.0,0.0,0.0,0.0,0.0,0.0,0.0,0.0,0.0,0.0
1762670794.1659322,9.461632257314445e-18,-6.9214030579657005e-18,0.1199938614406618,5.0,0.0,1.5,6.129140095019249e-17,8.410615561413331e-17,-9.948871720587329e-20,2.7006112050960936e-16,-2.0710926571875953e-16,1.2117139851855752,1.701624254129091e-15,2.410199767931193e-15,-6.628512342310792e-18,0.0,0.0,0.0,0.0,0.0,0.0,0.0,0.0,0.0,0.0,0.0,0.0,0.0,0.0,0.0,0.0,0.0,0.0,0.0,0.0,0.0,0.0,0.0,0.0
1762670794.167277,9.461632257314445e-18,-6.9214030579657005e-18,0.1199938614406618,5.0,0.0,1.5,6.129140095019249e-17,8.410615561413331e-17,-9.948871720587329e-20,2.7006112050960936e-16,-2.0710926571875953e-16,1.2117139851855752,1.701624254129091e-15,2.410199767931193e-15,-6.628512342310792e-18,0.0,0.0,0.0,0.0,0.0,0.0,0.0,0.0,0.0,0.0,0.0,0.0,0.0,0.0,0.0,0.0,0.0,0.0,0.0,0.0,0.0,0.0,0.0,0.0
1762670794.1685667,9.725954982130322e-18,-7.124460871473546e-18,0.12120067042584738,5.0,0.0,1.5,6.299301087877647e-17,8.651628180550153e-17,-1.0611722924773631e-19,2.700611205096094e-16,-2.0710926571875956e-16,1.201903985185575,1.7015957301848578e-15,2.410053256501064e-15,-6.6285117415151845e-18,0.0,0.0,0.0,0.0,0.0,0.0,0.0,0.0,0.0,0.0,0.0,0.0,0.0,0.0,0.0,0.0,0.0,0.0,0.0,0.0,0.0,0.0,0.0,0.0
1762670794.1699085,9.725954982130322e-18,-7.124460871473546e-18,0.12120067042584738,5.0,0.0,1.5,6.299301087877647e-17,8.651628180550153e-17,-1.0611722924773631e-19,2.700611205096094e-16,-2.0710926571875956e-16,1.201903985185575,1.7015957301848578e-15,2.410053256501064e-15,-6.6285117415151845e-18,0.0,0.0,0.0,0.0,0.0,0.0,0.0,0.0,0.0,0.0,0.0,0.0,0.0,0.0,0.0,0.0,0.0,0.0,0.0,0.0,0.0,0.0,0.0,0.0
1762670794.1712897,9.725954982130322e-18,-7.124460871473546e-18,0.12120067042584738,5.0,0.0,1.5,6.299301087877647e-17,8.651628180550153e-17,-1.0611722924773631e-19,2.700611205096094e-16,-2.0710926571875956e-16,1.201903985185575,1.7015957301848578e-15,2.410053256501064e-15,-6.6285117415151845e-18,0.0,0.0,0.0,0.0,0.0,0.0,0.0,0.0,0.0,0.0,0.0,0.0,0.0,0.0,0.0,0.0,0.0,0.0,0.0,0.0,0.0,0.0,0.0,0.0
1762670794.1726344,9.990278051236636e-18,-7.327518751994885e-18,0.12239766941103296,5.0,0.0,1.5,6.469459266169288e-17,8.89262633948857e-17,-1.1274574068910256e-19,2.7006112050960936e-16,-2.071092657187595e-16,1.192093985185575,1.701567959671268e-15,2.4099105485089875e-15,-6.6285111413171425e-18,0.0,0.0,0.0,0.0,0.0,0.0,0.0,0.0,0.0,0.0,0.0,0.0,0.0,0.0,0.0,0.0,0.0,0.0,0.0,0.0,0.0,0.0,0.0,0.0
1762670794.173941,9.990278051236636e-18,-7.327518751994885e-18,0.12239766941103296,5.0,0.0,1.5,6.469459266169288e-17,8.89262633948857e-17,-1.1274574068910256e-19,2.7006112050960936e-16,-2.071092657187595e-16,1.192093985185575,1.701567959671268e-15,2.4099105485089875e-15,-6.6285111413171425e-18,0.0,0.0,0.0,0.0,0.0,0.0,0.0,0.0,0.0,0.0,0.0,0.0,0.0,0.0,0.0,0.0,0.0,0.0,0.0,0.0,0.0,0.0,0.0,0.0
1762670794.175158,9.990278051236636e-18,-7.327518751994885e-18,0.12239766941103296,5.0,0.0,1.5,6.469459266169288e-17,8.89262633948857e-17,-1.1274574068910256e-19,2.7006112050960936e-16,-2.071092657187595e-16,1.192093985185575,1.701567959671268e-15,2.4099105485089875e-15,-6.6285111413171425e-18,0.0,0.0,0.0,0.0,0.0,0.0,0.0,0.0,0.0,0.0,0.0,0.0,0.0,0.0,0.0,0.0,0.0,0.0,0.0,0.0,0.0,0.0,0.0,0.0
1762670794.1764898,1.0254600281392844e-17,-7.530576697757958e-18,0.12358485839621854,5.0,0.0,1.5,6.639614704308064e-17,9.133659734331388e-17,-1.1937425153056929e-19,2.700611205096094e-16,-2.0710926571875953e-16,1.1822839851855749,1.7015409240803046e-15,2.4106346507975623e-15,-6.6285105417160695e-18,0.0,0.0,0.0,0.0,0.0,0.0,0.0,0.0,0.0,0.0,0.0,0.0,0.0,0.0,0.0,0.0,0.0,0.0,0.0,0.0,0.0,0.0,0.0,0.0
1762670794.1777422,1.0254600281392844e-17,-7.530576697757958e-18,0.12358485839621854,5.0,0.0,1.5,6.639614704308064e-17,9.133659734331388e-17,-1.1937425153056929e-19,2.700611205096094e-16,-2.0710926571875953e-16,1.1822839851855749,1.7015409240803046e-15,2.4106346507975623e-15,-6.6285105417160695e-18,0.0,0.0,0.0,0.0,0.0,0.0,0.0,0.0,0.0,0.0,0.0,0.0,0.0,0.0,0.0,0.0,0.0,0.0,0.0,0.0,0.0,0.0,0.0,0.0
1762670794.17908,1.0254600281392844e-17,-7.530576697757958e-18,0.12358485839621854,5.0,0.0,1.5,6.639614704308064e-17,9.133659734331388e-17,-1.1937425153056929e-19,2.700611205096094e-16,-2.0710926571875953e-16,1.1822839851855749,1.7015409240803046e-15,2.4106346507975623e-15,-6.6285105417160695e-18,0.0,0.0,0.0,0.0,0.0,0.0,0.0,0.0,0.0,0.0,0.0,0.0,0.0,0.0,0.0,0.0,0.0,0.0,0.0,0.0,0.0,0.0,0.0,0.0
1762670794.1805449,1.0518922516835732e-17,-7.73363660757532e-18,0.12476223738140411,5.0,0.0,1.5,6.809687652166799e-17,9.374692907133701e-17,-1.2600276177273315e-19,2.7006112050960936e-16,-2.0710926571875948e-16,1.1724739851855748,1.699918179197872e-15,2.410180592724441e-15,-6.6285099427113745e-18,0.0,0.0,0.0,0.0,0.0,0.0,0.0,0.0,0.0,0.0,0.0,0.0,0.0,0.0,0.0,0.0,0.0,0.0,0.0,0.0,0.0,0.0,0.0,0.0
1762670794.1818535,1.0518922516835732e-17,-7.73363660757532e-18,0.12476223738140411,5.0,0.0,1.5,6.809687652166799e-17,9.374692907133701e-17,-1.2600276177273315e-19,2.7006112050960936e-16,-2.0710926571875948e-16,1.1724739851855748,1.699918179197872e-15,2.410180592724441e-15,-6.6285099427113745e-18,0.0,0.0,0.0,0.0,0.0,0.0,0.0,0.0,0.0,0.0,0.0,0.0,0.0,0.0,0.0,0.0,0.0,0.0,0.0,0.0,0.0,0.0,0.0,0.0
1762670794.1830916,1.0518922516835732e-17,-7.73363660757532e-18,0.12476223738140411,5.0,0.0,1.5,6.809687652166799e-17,9.374692907133701e-17,-1.2600276177273315e-19,2.7006112050960936e-16,-2.0710926571875948e-16,1.1724739851855748,1.699918179197872e-15,2.410180592724441e-15,-6.6285099427113745e-18,0.0,0.0,0.0,0.0,0.0,0.0,0.0,0.0,0.0,0.0,0.0,0.0,0.0,0.0,0.0,0.0,0.0,0.0,0.0,0.0,0.0,0.0,0.0,0.0
1762670794.1844163,1.0783245203435784e-17,-7.936699113131403e-18,0.12592980636658968,5.0,0.0,1.5,6.979651578999214e-17,9.615707131335117e-17,-1.326312714161903e-19,2.7006112050960936e-16,-2.0710926571875953e-16,1.1626639851855747,1.6985622451921503e-15,2.410076578826384e-15,-6.628509344302461e-18,0.0,0.0,0.0,0.0,0.0,0.0,0.0,0.0,0.0,0.0,0.0,0.0,0.0,0.0,0.0,0.0,0.0,0.0,0.0,0.0,0.0,0.0,0.0,0.0
1762670794.1856158,1.0783245203435784e-17,-7.936699113131403e-18,0.12592980636658968,5.0,0.0,1.5,6.979651578999214e-17,9.615707131335117e-17,-1.326312714161903e-19,2.7006112050960936e-16,-2.0710926571875953e-16,1.1626639851855747,1.6985622451921503e-15,2.410076578826384e-15,-6.628509344302461e-18,0.0,0.0,0.0,0.0,0.0,0.0,0.0,0.0,0.0,0.0,0.0,0.0,0.0,0.0,0.0,0.0,0.0,0.0,0.0,0.0,0.0,0.0,0.0,0.0
1762670794.1868997,1.0783245203435784e-17,-7.936699113131403e-18,0.12592980636658968,5.0,0.0,1.5,6.979651578999214e-17,9.615707131335117e-17,-1.326312714161903e-19,2.7006112050960936e-16,-2.0710926571875953e-16,1.1626639851855747,1.6985622451921503e-15,2.410076578826384e-15,-6.628509344302461e-18,0.0,0.0,0.0,0.0,0.0,0.0,0.0,0.0,0.0,0.0,0.0,0.0,0.0,0.0,0.0,0.0,0.0,0.0,0.0,0.0,0.0,0.0,0.0,0.0
1762670794.1884477,1.1047568199983167e-17,-8.139766113249144e-18,0.12708756535177526,5.0,0.0,1.5,7.149426734241962e-17,9.856708337748575e-17,-1.3925978046153617e-19,2.7006112050960936e-16,-2.071092657187595e-16,1.1528539851855746,1.69694098075734e-15,2.4099481177413575e-15,-6.628508746488738e-18,0.0,0.0,0.0,0.0,0.0,0.0,0.0,0.0,0.0,0.0,0.0,0.0,0.0,0.0,0.0,0.0,0.0,0.0,0.0,0.0,0.0,0.0,0.0,0.0
1762670794.1898746,1.1047568199983167e-17,-8.139766113249144e-18,0.12708756535177526,5.0,0.0,1.5,7.149426734241962e-17,9.856708337748575e-17,-1.3925978046153617e-19,2.7006112050960936e-16,-2.071092657187595e-16,1.1528539851855746,1.69694098075734e-15,2.4099481177413575e-15,-6.628508746488738e-18,0.0,0.0,0.0,0.0,0.0,0.0,0.0,0.0,0.0,0.0,0.0,0.0,0.0,0.0,0.0,0.0,0.0,0.0,0.0,0.0,0.0,0.0,0.0,0.0
1762670794.191237,1.1047568199983167e-17,-8.139766113249144e-18,0.12708756535177526,5.0,0.0,1.5,7.149426734241962e-17,9.856708337748575e-17,-1.3925978046153617e-19,2.7006112050960936e-16,-2.071092657187595e-16,1.1528539851855746,1.69694098075734e-15,2.4099481177413575e-15,-6.628508746488738e-18,0.0,0.0,0.0,0.0,0.0,0.0,0.0,0.0,0.0,0.0,0.0,0.0,0.0,0.0,0.0,0.0,0.0,0.0,0.0,0.0,0.0,0.0,0.0,0.0
1762670794.1925714,1.1311891498364057e-17,-8.34283697266254e-18,0.12823551433696084,5.0,0.0,1.5,7.319039799067264e-17,1.009769686715476e-16,-1.4588828890936566e-19,2.7006112050960936e-16,-2.0710926571875953e-16,1.1430439851855745,1.6953204338570035e-15,2.409823024963792e-15,-6.6285081492696146e-18,0.0,0.0,0.0,0.0,0.0,0.0,0.0,0.0,0.0,0.0,0.0,0.0,0.0,0.0,0.0,0.0,0.0,0.0,0.0,0.0,0.0,0.0,0.0,0.0
1762670794.1938775,1.1311891498364057e-17,-8.34283697266254e-18,0.12823551433696084,5.0,0.0,1.5,7.319039799067264e-17,1.009769686715476e-16,-1.4588828890936566e-19,2.7006112050960936e-16,-2.0710926571875953e-16,1.1430439851855745,1.6953204338570035e-15,2.409823024963792e-15,-6.6285081492696146e-18,0.0,0.0,0.0,0.0,0.0,0.0,0.0,0.0,0.0,0.0,0.0,0.0,0.0,0.0,0.0,0.0,0.0,0.0,0.0,0.0,0.0,0.0,0.0,0.0
1762670794.1951444,1.1311891498364057e-17,-8.34283697266254e-18,0.12823551433696084,5.0,0.0,1.5,7.319039799067264e-17,1.009769686715476e-16,-1.4588828890936566e-19,2.7006112050960936e-16,-2.0710926571875953e-16,1.1430439851855745,1.6953204338570035e-15,2.409823024963792e-15,-6.6285081492696146e-18,0.0,0.0,0.0,0.0,0.0,0.0,0.0,0.0,0.0,0.0,0.0,0.0,0.0,0.0,0.0,0.0,0.0,0.0,0.0,0.0,0.0,0.0,0.0,0.0
1762670794.1966124,1.1576215090655873e-17,-8.54591168968433e-18,0.12937365332214643,5.0,0.0,1.5,7.488490844340009e-17,1.0338673052302147e-16,-1.5251679676027304e-19,2.7006112050960926e-16,-2.0710926571875948e-16,1.1332339851855744,1.6937005867921243e-15,2.409701219172984e-15,-6.6285075526444985e-18,0.0,0.0,0.0,0.0,0.0,0.0,0.0,0.0,0.0,0.0,0.0,0.0,0.0,0.0,0.0,0.0,0.0,0.0,0.0,0.0,0.0,0.0,0.0,0.0
1762670794.19801,1.1576215090655873e-17,-8.54591168968433e-18,0.12937365332214643,5.0,0.0,1.5,7.488490844340009e-17,1.0338673052302147e-16,-1.5251679676027304e-19,2.7006112050960926e-16,-2.0710926571875948e-16,1.1332339851855744,1.6937005867921243e-15,2.409701219172984e-15,-6.6285075526444985e-18,0.0,0.0,0.0,0.0,0.0,0.0,0.0,0.0,0.0,0.0,0.0,0.0,0.0,0.0,0.0,0.0,0.0,0.0,0.0,0.0,0.0,0.0,0.0,0.0
1762670794.1992555,1.1576215090655873e-17,-8.54591168968433e-18,0.12937365332214643,5.0,0.0,1.5,7.488490844340009e-17,1.0338673052302147e-16,-1.5251679676027304e-19,2.7006112050960926e-16,-2.0710926571875948e-16,1.1332339851855744,1.6937005867921243e-15,2.409701219172984e-15,-6.6285075526444985e-18,0.0,0.0,0.0,0.0,0.0,0.0,0.0,0.0,0.0,0.0,0.0,0.0,0.0,0.0,0.0,0.0,0.0,0.0,0.0,0.0,0.0,0.0,0.0,0.0
1762670794.2006123,1.1840538969127348e-17,-8.748990262668883e-18,0.130501982307332,5.0,0.0,1.5,7.65777993917666e-17,1.0579637217903785e-16,-1.591453040148521e-19,2.700611205096093e-16,-2.071092657187595e-16,1.1234239851855743,1.692081422291596e-15,2.4095826209735403e-15,-6.628506956612799e-18,0.0,0.0,0.0,0.0,0.0,0.0,0.0,0.0,0.0,0.0,0.0,0.0,0.0,0.0,0.0,0.0,0.0,0.0,0.0,0.0,0.0,0.0,0.0,0.0
1762670794.2018685,1.1840538969127348e-17,-8.748990262668883e-18,0.130501982307332,5.0,0.0,1.5,7.65777993917666e-17,1.0579637217903785e-16,-1.591453040148521e-19,2.700611205096093e-16,-2.071092657187595e-16,1.1234239851855743,1.692081422291596e-15,2.4095826209735403e-15,-6.628506956612799e-18,0.0,0.0,0.0,0.0,0.0,0.0,0.0,0.0,0.0,0.0,0.0,0.0,0.0,0.0,0.0,0.0,0.0,0.0,0.0,0.0,0.0,0.0,0.0,0.0
1762670794.2031415,1.1840538969127348e-17,-8.748990262668883e-18,0.130501982307332,5.0,0.0,1.5,7.65777993917666e-17,1.0579637217903785e-16,-1.591453040148521e-19,2.700611205096093e-16,-2.071092657187595e-16,1.1234239851855743,1.692081422291596e-15,2.4095826209735403e-15,-6.628506956612799e-18,0.0,0.0,0.0,0.0,0.0,0.0,0.0,0.0,0.0,0.0,0.0,0.0,0.0,0.0,0.0,0.0,0.0,0.0,0.0,0.0,0.0,0.0,0.0,0.0
1762670794.20458,1.210486312623401e-17,-8.952072690011194e-18,0.1316205012925176,5.0,0.0,1.5,7.826907150987543e-17,1.0820589680827559e-16,-1.657738106736959e-19,2.700611205096093e-16,-2.0710926571875953e-16,1.1136139851855742,1.6904629235019249e-15,2.4094671528500194e-15,-6.628506361173926e-18,0.0,0.0,0.0,0.0,0.0,0.0,0.0,0.0,0.0,0.0,0.0,0.0,0.0,0.0,0.0,0.0,0.0,0.0,0.0,0.0,0.0,0.0,0.0,0.0
1762670794.2059278,1.210486312623401e-17,-8.952072690011194e-18,0.1316205012925176,5.0,0.0,1.5,7.826907150987543e-17,1.0820589680827559e-16,-1.657738106736959e-19,2.700611205096093e-16,-2.0710926571875953e-16,1.1136139851855742,1.6904629235019249e-15,2.4094671528500194e-15,-6.628506361173926e-18,0.0,0.0,0.0,0.0,0.0,0.0,0.0,0.0,0.0,0.0,0.0,0.0,0.0,0.0,0.0,0.0,0.0,0.0,0.0,0.0,0.0,0.0,0.0,0.0
1762670794.2071707,1.210486312623401e-17,-8.952072690011194e-18,0.1316205012925176,5.0,0.0,1.5,7.826907150987543e-17,1.0820589680827559e-16,-1.657738106736959e-19,2.700611205096093e-16,-2.0710926571875953e-16,1.1136139851855742,1.6904629235019249e-15,2.4094671528500194e-15,-6.628506361173926e-18,0.0,0.0,0.0,0.0,0.0,0.0,0.0,0.0,0.0,0.0,0.0,0.0,0.0,0.0,0.0,0.0,0.0,0.0,0.0,0.0,0.0,0.0,0.0,0.0
1762670794.2085307,1.2369186380319509e-17,-9.155158970145892e-18,0.13272921027770318,5.0,0.0,1.5,7.995872545518091e-17,1.1061580070640178e-16,-1.72402316737397e-19,2.7006112050960926e-16,-2.0710926571875946e-16,1.103803985185574,1.688845073977185e-15,2.410217837584012e-15,-6.628505766327288e-18,0.0,0.0,0.0,0.0,0.0,0.0,0.0,0.0,0.0,0.0,0.0,0.0,0.0,0.0,0.0,0.0,0.0,0.0,0.0,0.0,0.0,0.0,0.0,0.0
1762670794.2097237,1.2369186380319509e-17,-9.155158970145892e-18,0.13272921027770318,5.0,0.0,1.5,7.995872545518091e-17,1.1061580070640178e-16,-1.72402316737397e-19,2.7006112050960926e-16,-2.0710926571875946e-16,1.103803985185574,1.688845073977185e-15,2.410217837584012e-15,-6.628505766327288e-18,0.0,0.0,0.0,0.0,0.0,0.0,0.0,0.0,0.0,0.0,0.0,0.0,0.0,0.0,0.0,0.0,0.0,0.0,0.0,0.0,0.0,0.0,0.0,0.0
1762670794.2109854,1.2369186380319509e-17,-9.155158970145892e-18,0.13272921027770318,5.0,0.0,1.5,7.995872545518091e-17,1.1061580070640178e-16,-1.72402316737397e-19,2.7006112050960926e-16,-2.0710926571875946e-16,1.103803985185574,1.688845073977185e-15,2.410217837584012e-15,-6.628505766327288e-18,0.0,0.0,0.0,0.0,0.0,0.0,0.0,0.0,0.0,0.0,0.0,0.0,0.0,0.0,0.0,0.0,0.0,0.0,0.0,0.0,0.0,0.0,0.0,0.0
1762670794.2124288,1.263350957716732e-17,-9.358249101546293e-18,0.13382810926288877,5.0,0.0,1.5,8.164676186889113e-17,1.130257286443569e-16,-1.7903082220654731e-19,2.700611205096093e-16,-2.071092657187595e-16,1.093993985185574,1.6872278576692105e-15,2.4097897200966754e-15,-6.628505172072299e-18,0.0,0.0,0.0,0.0,0.0,0.0,0.0,0.0,0.0,0.0,0.0,0.0,0.0,0.0,0.0,0.0,0.0,0.0,0.0,0.0,0.0,0.0,0.0,0.0
