timestamp,pos_x,pos_y,pos_z,target_x,target_y,target_z,roll,pitch,yaw,vel_x,vel_y,vel_z,angular_vel_x,angular_vel_y,angular_vel_z,accel_x,accel_y,accel_z,f_world_x,f_world_y,f_world_z,f_body_x,f_body_y,f_body_z,tau_x,tau_y,tau_z,u1,u2,u3,u4,u5,T12,T34,T5,alpha1,alpha2theta1,theta2
1762671452.416712,0.0,0.0,0.075,5.0,0.0,1.5,0.0,0.0,0.0,0.0,0.0,0.0,0.0,0.0,0.0,0.0,0.0,0.0,0.0,0.0,0.0,0.0,0.0,0.0,0.0,0.0,0.0,0.0,0.0,0.0,0.0,0.0,0.0,0.0,0.0,0.0,0.0,0.0,0.0
1762671452.4186091,0.0,0.0,0.075,5.0,0.0,1.5,0.0,0.0,0.0,0.0,0.0,0.0,0.0,0.0,0.0,0.0,0.0,0.0,25.0,0.0,48.327000000000005,25.0,0.0,48.327000000000005,0.0,0.0,0.0,27.205233545220672,27.205233545220672,0.0,0.4773988588211861,0.4773988588211861,27.205233545220672,27.205233545220672,0.0,0.4773988588211861,0.4773988588211861,-0.0,-0.0
1762671452.4204593,0.0,0.0,0.075,5.0,0.0,1.5,0.0,0.0,0.0,0.0,0.0,0.0,0.0,0.0,0.0,0.0,0.0,0.0,25.0,0.0,48.327000000000005,25.0,0.0,48.327000000000005,0.0,0.0,0.0,27.205233545220672,27.205233545220672,0.0,0.4773988588211861,0.4773988588211861,27.205233545220672,27.205233545220672,0.0,0.4773988588211861,0.4773988588211861,-0.0,-0.0
1762671452.4224262,-5.402930890497663e-09,6.073204878612689e-22,0.07509282691237765,5.0,0.0,1.5,-5.48281871056059e-21,-4.873876209606065e-08,-3.720427065451724e-21,-1.1068732800337915e-05,-8.096510078689288e-18,0.18606029659959447,7.154979078232826e-17,-9.776727173042142e-05,-2.441801338485124e-17,0.0,0.0,0.0,25.0,0.0,48.327000000000005,25.0,0.0,48.327000000000005,0.0,0.0,0.0,27.205233545220672,27.205233545220672,0.0,0.4773988588211861,0.4773988588211861,27.205233545220672,27.205233545220672,0.0,0.4773988588211861,0.4773988588211861,-0.0,-0.0
1762671452.4241595,-5.402930890497663e-09,6.073204878612689e-22,0.07509282691237765,5.0,0.0,1.5,-5.48281871056059e-21,-4.873876209606065e-08,-3.720427065451724e-21,-1.1068732800337915e-05,-8.096510078689288e-18,0.18606029659959447,7.154979078232826e-17,-9.776727173042142e-05,-2.441801338485124e-17,0.0,0.0,0.0,25.000110714342654,8.096206418445357e-17,46.465932899442166,25.000112979034675,8.080031099337045e-17,46.465931680967664,-3.574795875366795e-18,4.912732967569101e-06,1.2224810737285875e-18,26.38222742221174,26.38222742221174,8.187888279281835e-06,0.4936076379490428,0.4936076379490428,26.38222742221174,26.38222742221174,8.187888279281835e-06,0.4936076379490428,0.4936076379490428,-1.5313398239707201e-18,-1.5313398239707201e-18
1762671452.4258265,-5.402930890497663e-09,6.073204878612689e-22,0.07509282691237765,5.0,0.0,1.5,-5.48281871056059e-21,-4.873876209606065e-08,-3.720427065451724e-21,-1.1068732800337915e-05,-8.096510078689288e-18,0.18606029659959447,7.154979078232826e-17,-9.776727173042142e-05,-2.441801338485124e-17,0.0,0.0,0.0,25.000110714342654,8.096206418445357e-17,46.465932899442166,25.000112979034675,8.080031099337045e-17,46.465931680967664,-3.574795875366795e-18,4.912732967569101e-06,1.2224810737285875e-18,26.38222742221174,26.38222742221174,8.187888279281835e-06,0.4936076379490428,0.4936076379490428,26.38222742221174,26.38222742221174,8.187888279281835e-06,0.4936076379490428,0.4936076379490428,-1.5313398239707201e-18,-1.5313398239707201e-18
1762671452.4277217,-2.124764614853487e-08,3.3054808918941047e-21,0.07536390347880727,5.0,0.0,1.5,-3.183271114308038e-20,-1.9164397128855725e-07,2.91114542473338e-20,-2.107345328941657e-05,9.877537911461697e-19,0.3530656947693928,-7.980494730724232e-18,-0.00018601971834403716,9.47612109667091e-17,0.0,0.0,0.0,25.000110714342654,8.096206418445357e-17,46.465932899442166,25.000112979034675,8.080031099337045e-17,46.465931680967664,-3.574795875366795e-18,4.912732967569101e-06,1.2224810737285875e-18,26.38222742221174,26.38222742221174,8.187888279281835e-06,0.4936076379490428,0.4936076379490428,26.38222742221174,26.38222742221174,8.187888279281835e-06,0.4936076379490428,0.4936076379490428,-1.5313398239707201e-18,-1.5313398239707201e-18
1762671452.4294376,-2.124764614853487e-08,3.3054808918941047e-21,0.07536390347880727,5.0,0.0,1.5,-3.183271114308038e-20,-1.9164397128855725e-07,2.91114542473338e-20,-2.107345328941657e-05,9.877537911461697e-19,0.3530656947693928,-7.980494730724232e-18,-0.00018601971834403716,9.47612109667091e-17,0.0,0.0,0.0,25.000210840771132,-9.894065315921167e-18,44.79452353491205,25.000219425371053,-1.2047788785949752e-17,44.79451874377154,4.1529363978847234e-19,9.396807902846136e-06,-4.752556892758704e-18,25.649359045198803,25.649359045198803,1.566134650474356e-05,0.5090476759256796,0.5090476759256796,25.649359045198803,25.649359045198803,1.566134650474356e-05,0.5090476759256796,0.5090476759256796,2.348555526225699e-19,2.348555526225699e-19
1762671452.4313865,-2.124764614853487e-08,3.3054808918941047e-21,0.07536390347880727,5.0,0.0,1.5,-3.183271114308038e-20,-1.9164397128855725e-07,2.91114542473338e-20,-2.107345328941657e-05,9.877537911461697e-19,0.3530656947693928,-7.980494730724232e-18,-0.00018601971834403716,9.47612109667091e-17,0.0,0.0,0.0,25.000210840771132,-9.894065315921167e-18,44.79452353491205,25.000219425371053,-1.2047788785949752e-17,44.79451874377154,4.1529363978847234e-19,9.396807902846136e-06,-4.752556892758704e-18,25.649359045198803,25.649359045198803,1.566134650474356e-05,0.5090476759256796,0.5090476759256796,25.649359045198803,25.649359045198803,1.566134650474356e-05,0.5090476759256796,0.5090476759256796,2.348555526225699e-19,2.348555526225699e-19
1762671452.433294,-4.6389115204764484e-08,7.592985791595758e-21,0.07579314655785403,5.0,0.0,1.5,-4.68539445595162e-20,-4.182757033665373e-07,2.924294607850924e-19,-3.007099620386121e-05,-1.8919934058870637e-18,0.5026282664345545,-1.1731697569842171e-17,-0.0002653187669773288,4.757139455391013e-16,0.0,0.0,0.0,25.000210840771132,-9.894065315921167e-18,44.79452353491205,25.000219425371053,-1.2047788785949752e-17,44.79451874377154,4.1529363978847234e-19,9.396807902846136e-06,-4.752556892758704e-18,25.649359045198803,25.649359045198803,1.566134650474356e-05,0.5090476759256796,0.5090476759256796,25.649359045198803,25.649359045198803,1.566134650474356e-05,0.5090476759256796,0.5090476759256796,2.348555526225699e-19,2.348555526225699e-19
1762671452.4350245,-4.6389115204764484e-08,7.592985791595758e-21,0.07579314655785403,5.0,0.0,1.5,-4.68539445595162e-20,-4.182757033665373e-07,2.924294607850924e-19,-3.007099620386121e-05,-1.8919934058870637e-18,0.5026282664345545,-1.1731697569842171e-17,-0.0002653187669773288,4.757139455391013e-16,0.0,0.0,0.0,25.000300941907607,1.8881969129912658e-17,43.29675160286519,25.000319051884652,9.542521496750529e-18,43.296741145842944,6.125361369421181e-19,1.3475076200549704e-05,-2.3931787496866786e-17,24.99810893742951,24.99810893742951,2.2458460334249507e-05,0.5236498206186321,0.5236498206186321,24.99810893742951,24.99810893742951,2.2458460334249507e-05,0.5236498206186321,0.5236498206186321,-1.908648674312834e-19,-1.908648674312834e-19
1762671452.4366121,-4.6389115204764484e-08,7.592985791595758e-21,0.07579314655785403,5.0,0.0,1.5,-4.68539445595162e-20,-4.182757033665373e-07,2.924294607850924e-19,-3.007099620386121e-05,-1.8919934058870637e-18,0.5026282664345545,-1.1731697569842171e-17,-0.0002653187669773288,4.757139455391013e-16,0.0,0.0,0.0,25.000300941907607,1.8881969129912658e-17,43.29675160286519,25.000319051884652,9.542521496750529e-18,43.296741145842944,6.125361369421181e-19,1.3475076200549704e-05,-2.3931787496866786e-17,24.99810893742951,24.99810893742951,2.2458460334249507e-05,0.5236498206186321,0.5236498206186321,24.99810893742951,24.99810893742951,2.2458460334249507e-05,0.5236498206186321,0.5236498206186321,-1.908648674312834e-19,-1.908648674312834e-19
1762671452.4382808,-7.986258042215825e-08,6.766141320745208e-21,0.0763638013236184,5.0,0.0,1.5,-6.158271624114708e-20,-7.198966834090638e-07,9.760116740048273e-19,-3.8104327205056405e-05,4.073314216204079e-18,0.6361076274046188,-1.1223027529110554e-17,-0.0003360941492548463,8.842938175093568e-16,0.0,0.0,0.0,25.000300941907607,1.8881969129912658e-17,43.29675160286519,25.000319051884652,9.542521496750529e-18,43.296741145842944,6.125361369421181e-19,1.3475076200549704e-05,-2.3931787496866786e-17,24.99810893742951,24.99810893742951,2.2458460334249507e-05,0.5236498206186321,0.5236498206186321,24.99810893742951,24.99810893742951,2.2458460334249507e-05,0.5236498206186321,0.5236498206186321,-1.908648674312834e-19,-1.908648674312834e-19
1762671452.4398756,-7.986258042215825e-08,6.766141320745208e-21,0.0763638013236184,5.0,0.0,1.5,-6.158271624114708e-20,-7.198966834090638e-07,9.760116740048273e-19,-3.8104327205056405e-05,4.073314216204079e-18,0.6361076274046188,-1.1223027529110554e-17,-0.0003360941492548463,8.842938175093568e-16,0.0,0.0,0.0,25.000381442584956,-4.076697286864451e-17,41.95910471933572,25.000411648798803,-6.775159154249709e-17,41.95908672163316,5.978866784849481e-19,1.7164655804446813e-05,-4.470254582163132e-17,24.421215880934387,24.421215880934387,2.8607759674078024e-05,0.537346733347645,0.537346733347645,24.421215880934387,24.421215880934387,2.8607759674078024e-05,0.537346733347645,0.537346733347645,1.387146157521802e-18,1.387146157521802e-18
1762671452.4412997,-7.986258042215825e-08,6.766141320745208e-21,0.0763638013236184,5.0,0.0,1.5,-6.158271624114708e-20,-7.198966834090638e-07,9.760116740048273e-19,-3.8104327205056405e-05,4.073314216204079e-18,0.6361076274046188,-1.1223027529110554e-17,-0.0003360941492548463,8.842938175093568e-16,0.0,0.0,0.0,25.000381442584956,-4.076697286864451e-17,41.95910471933572,25.000411648798803,-6.775159154249709e-17,41.95908672163316,5.978866784849481e-19,1.7164655804446813e-05,-4.470254582163132e-17,24.421215880934387,24.421215880934387,2.8607759674078024e-05,0.537346733347645,0.537346733347645,24.421215880934387,24.421215880934387,2.8607759674078024e-05,0.537346733347645,0.537346733347645,1.387146157521802e-18,1.387146157521802e-18
1762671452.4428127,-1.2074373337896823e-07,8.73319781532937e-21,0.0770604245190802,5.0,0.0,1.5,-8.197921553059032e-20,-1.0881857627090877e-06,2.0965508227901173e-18,-4.521335789886756e-05,-1.5863791203083325e-18,0.7547683833855905,-2.4988278232060204e-17,-0.0003987486359954387,1.325157339794981e-15,0.0,0.0,0.0,25.000381442584956,-4.076697286864451e-17,41.95910471933572,25.000411648798803,-6.775159154249709e-17,41.95908672163316,5.978866784849481e-19,1.7164655804446813e-05,-4.470254582163132e-17,24.421215880934387,24.421215880934387,2.8607759674078024e-05,0.537346733347645,0.537346733347645,24.421215880934387,24.421215880934387,2.8607759674078024e-05,0.537346733347645,0.537346733347645,1.387146157521802e-18,1.387146157521802e-18
1762671452.4442785,-1.2074373337896823e-07,8.73319781532937e-21,0.0770604245190802,5.0,0.0,1.5,-8.197921553059032e-20,-1.0881857627090877e-06,2.0965508227901173e-18,-4.521335789886756e-05,-1.5863791203083325e-18,0.7547683833855905,-2.4988278232060204e-17,-0.0003987486359954387,1.325157339794981e-15,0.0,0.0,0.0,25.00045273729766,1.582012521400669e-17,40.7690140435487,25.0004971015435,-3.993680410148815e-17,40.76898683838783,1.300971042643556e-18,2.0481524681126372e-05,-6.730574381716721e-17,23.911986323725056,23.911986323725056,3.4135874468543954e-05,0.5500862732232044,0.5500862732232044,23.911986323725056,23.911986323725056,3.4135874468543954e-05,0.5500862732232044,0.5500862732232044,8.350791849914941e-19,8.350791849914941e-19
1762671452.4458618,-1.2074373337896823e-07,8.73319781532937e-21,0.0770604245190802,5.0,0.0,1.5,-8.197921553059032e-20,-1.0881857627090877e-06,2.0965508227901173e-18,-4.521335789886756e-05,-1.5863791203083325e-18,0.7547683833855905,-2.4988278232060204e-17,-0.0003987486359954387,1.325157339794981e-15,0.0,0.0,0.0,25.00045273729766,1.582012521400669e-17,40.7690140435487,25.0004971015435,-3.993680410148815e-17,40.76898683838783,1.300971042643556e-18,2.0481524681126372e-05,-6.730574381716721e-17,23.911986323725056,23.911986323725056,3.4135874468543954e-05,0.5500862732232044,0.5500862732232044,23.911986323725056,23.911986323725056,3.4135874468543954e-05,0.5500862732232044,0.5500862732232044,8.350791849914941e-19,8.350791849914941e-19
1762671452.4476066,-1.6814584617781072e-07,6.815700909572456e-21,0.07786879262614727,5.0,0.0,1.5,-8.766092103165221e-20,-1.515213095181087e-06,3.6948429471602565e-18,-5.1435210387133745e-05,-3.0600540344316732e-18,0.8597864206601631,-2.1310270142374144e-18,-0.0004536622985783329,1.865493856739367e-15,0.0,0.0,0.0,25.00045273729766,1.582012521400669e-17,40.7690140435487,25.0004971015435,-3.993680410148815e-17,40.76898683838783,1.300971042643556e-18,2.0481524681126372e-05,-6.730574381716721e-17,23.911986323725056,23.911986323725056,3.4135874468543954e-05,0.5500862732232044,0.5500862732232044,23.911986323725056,23.911986323725056,3.4135874468543954e-05,0.5500862732232044,0.5500862732232044,8.350791849914941e-19,8.350791849914941e-19
1762671452.4491787,-1.6814584617781072e-07,6.815700909572456e-21,0.07786879262614727,5.0,0.0,1.5,-8.766092103165221e-20,-1.515213095181087e-06,3.6948429471602565e-18,-5.1435210387133745e-05,-3.0600540344316732e-18,0.8597864206601631,-2.1310270142374144e-18,-0.0004536622985783329,1.865493856739367e-15,0.0,0.0,0.0,25.000515192833102,3.0566461839768873e-17,39.71479183026764,25.000575369177056,-6.528794730556813e-17,39.71475394911405,1.673064962297099e-19,2.34407214765069e-05,-9.512207560667662e-17,23.46426723173174,23.46426723173174,3.90678691275115e-05,0.5618316555071962,0.5618316555071962,23.46426723173174,23.46426723173174,3.90678691275115e-05,0.5618316555071962,0.5618316555071962,1.3912206731364794e-18,1.3912206731364794e-18
1762671452.4505901,-1.6814584617781072e-07,6.815700909572456e-21,0.07786879262614727,5.0,0.0,1.5,-8.766092103165221e-20,-1.515213095181087e-06,3.6948429471602565e-18,-5.1435210387133745e-05,-3.0600540344316732e-18,0.8597864206601631,-2.1310270142374144e-18,-0.0004536622985783329,1.865493856739367e-15,0.0,0.0,0.0,25.000515192833102,3.0566461839768873e-17,39.71479183026764,25.000575369177056,-6.528794730556813e-17,39.71475394911405,1.673064962297099e-19,2.34407214765069e-05,-9.512207560667662e-17,23.46426723173174,23.46426723173174,3.90678691275115e-05,0.5618316555071962,0.5618316555071962,23.46426723173174,23.46426723173174,3.90678691275115e-05,0.5618316555071962,0.5618316555071962,1.3912206731364794e-18,1.3912206731364794e-18
1762671452.4522145,-2.2121718457416596e-07,3.6133898073560225e-21,0.078775816122116,5.0,0.0,1.5,-9.708643151318515e-20,-1.9934194272843796e-06,5.843427999135747e-18,-5.680452872168179e-05,-6.578331290398919e-18,0.952254792664254,1.0968711530865868e-17,-0.00050119643505743,2.4428676725047144e-15,0.0,0.0,0.0,25.000515192833102,3.0566461839768873e-17,39.71479183026764,25.000575369177056,-6.528794730556813e-17,39.71475394911405,1.673064962297099e-19,2.34407214765069e-05,-9.512207560667662e-17,23.46426723173174,23.46426723173174,3.90678691275115e-05,0.5618316555071962,0.5618316555071962,23.46426723173174,23.46426723173174,3.90678691275115e-05,0.5618316555071962,0.5618316555071962,1.3912206731364794e-18,1.3912206731364794e-18
1762671452.4536889,-2.2121718457416596e-07,3.6133898073560225e-21,0.078775816122116,5.0,0.0,1.5,-9.708643151318515e-20,-1.9934194272843796e-06,5.843427999135747e-18,-5.680452872168179e-05,-6.578331290398919e-18,0.952254792664254,1.0968711530865868e-17,-0.00050119643505743,2.4428676725047144e-15,0.0,0.0,0.0,25.00056915137314,6.57652459549524e-17,38.785572992746886,25.00064646723817,-8.40893278561037e-17,38.785523156049585,-4.754081415119448e-19,2.6056531466513033e-05,-1.2506531747558185e-16,23.072417306978757,23.072417306978757,4.3427552444188393e-05,0.5725610858424223,0.5725610858424223,23.072417306978757,23.072417306978757,4.3427552444188393e-05,0.5725610858424223,0.5725610858424223,1.822291239303067e-18,1.822291239303067e-18
1762671452.455155,-2.2121718457416596e-07,3.6133898073560225e-21,0.078775816122116,5.0,0.0,1.5,-9.708643151318515e-20,-1.9934194272843796e-06,5.843427999135747e-18,-5.680452872168179e-05,-6.578331290398919e-18,0.952254792664254,1.0968711530865868e-17,-0.00050119643505743,2.4428676725047144e-15,0.0,0.0,0.0,25.00056915137314,6.57652459549524e-17,38.785572992746886,25.00064646723817,-8.40893278561037e-17,38.785523156049585,-4.754081415119448e-19,2.6056531466513033e-05,-1.2506531747558185e-16,23.072417306978757,23.072417306978757,4.3427552444188393e-05,0.5725610858424223,0.5725610858424223,23.072417306978757,23.072417306978757,4.3427552444188393e-05,0.5725610858424223,0.5725610858424223,1.822291239303067e-18,1.822291239303067e-18
1762671452.4567642,-2.791387389779074e-07,-2.3382426167919897e-21,0.07976945943133977,5.0,0.0,1.5,-9.113437933694869e-20,-2.5155991328254534e-06,8.593794821545848e-18,-6.135381762271966e-05,-2.3164000655193304e-18,1.0331892279410766,-5.135554255983934e-18,-0.0005416971257145957,3.124694018689689e-15,0.0,0.0,0.0,25.00056915137314,6.57652459549524e-17,38.785572992746886,25.00064646723817,-8.40893278561037e-17,38.785523156049585,-4.754081415119448e-19,2.6056531466513033e-05,-1.2506531747558185e-16,23.072417306978757,23.072417306978757,4.3427552444188393e-05,0.5725610858424223,0.5725610858424223,23.072417306978757,23.072417306978757,4.3427552444188393e-05,0.5725610858424223,0.5725610858424223,1.822291239303067e-18,1.822291239303067e-18
1762671452.4582012,-2.791387389779074e-07,-2.3382426167919897e-21,0.07976945943133977,5.0,0.0,1.5,-9.113437933694869e-20,-2.5155991328254534e-06,8.593794821545848e-18,-6.135381762271966e-05,-2.3164000655193304e-18,1.0331892279410766,-5.135554255983934e-18,-0.0005416971257145957,3.124694018689689e-15,0.0,0.0,0.0,25.000614933869922,2.3175691868277205e-17,37.97126042343254,25.00071045426061,-1.95134944805616e-16,37.97119753178715,3.3619225320513465e-19,2.8342655852141185e-05,-1.60531487011337e-16,22.73127678920276,22.73127678920276,4.7237759753568647e-05,0.5822669500027025,0.5822669500027025,22.73127678920276,22.73127678920276,4.7237759753568647e-05,0.5822669500027025,0.5822669500027025,4.292212589182498e-18,4.292212589182498e-18
1762671452.4595766,-2.791387389779074e-07,-2.3382426167919897e-21,0.07976945943133977,5.0,0.0,1.5,-9.113437933694869e-20,-2.5155991328254534e-06,8.593794821545848e-18,-6.135381762271966e-05,-2.3164000655193304e-18,1.0331892279410766,-5.135554255983934e-18,-0.0005416971257145957,3.124694018689689e-15,0.0,0.0,0.0,25.000614933869922,2.3175691868277205e-17,37.97126042343254,25.00071045426061,-1.95134944805616e-16,37.97119753178715,3.3619225320513465e-19,2.8342655852141185e-05,-1.60531487011337e-16,22.73127678920276,22.73127678920276,4.7237759753568647e-05,0.5822669500027025,0.5822669500027025,22.73127678920276,22.73127678920276,4.7237759753568647e-05,0.5822669500027025,0.5822669500027025,4.292212589182498e-18,4.292212589182498e-18
1762671452.4611204,-3.411222886799743e-07,-5.859267530207376e-21,0.08083866620555902,5.0,0.0,1.5,-9.601834214102798e-20,-3.07488657095508e-06,1.201284318276898e-17,-6.511378434854682e-05,-6.94854409394092e-19,1.1035332833676363,-9.09648588680098e-19,-0.000575498327830118,3.67712645464884e-15,0.0,0.0,0.0,25.000614933869922,2.3175691868277205e-17,37.97126042343254,25.00071045426061,-1.95134944805616e-16,37.97119753178715,3.3619225320513465e-19,2.8342655852141185e-05,-1.60531487011337e-16,22.73127678920276,22.73127678920276,4.7237759753568647e-05,0.5822669500027025,0.5822669500027025,22.73127678920276,22.73127678920276,4.7237759753568647e-05,0.5822669500027025,0.5822669500027025,4.292212589182498e-18,4.292212589182498e-18
1762671452.4625897,-3.411222886799743e-07,-5.859267530207376e-21,0.08083866620555902,5.0,0.0,1.5,-9.601834214102798e-20,-3.07488657095508e-06,1.201284318276898e-17,-6.511378434854682e-05,-6.94854409394092e-19,1.1035332833676363,-9.09648588680098e-19,-0.000575498327830118,3.67712645464884e-15,0.0,0.0,0.0,25.00065284345493,6.977840431592012e-18,37.26247383529584,25.000767421217134,-2.9692895522407053e-16,37.26239696094799,1.3580596848926592e-19,3.031235967698102e-05,-1.8986272330995125e-16,22.436136219781396,22.436136219781396,5.052059946163503e-05,0.5909546537651514,0.5909546537651514,22.436136219781396,22.436136219781396,5.052059946163503e-05,0.5909546537651514,0.5909546537651514,6.617203432787939e-18,6.617203432787939e-18
1762671452.4640596,-3.411222886799743e-07,-5.859267530207376e-21,0.08083866620555902,5.0,0.0,1.5,-9.601834214102798e-20,-3.07488657095508e-06,1.201284318276898e-17,-6.511378434854682e-05,-6.94854409394092e-19,1.1035332833676363,-9.09648588680098e-19,-0.000575498327830118,3.67712645464884e-15,0.0,0.0,0.0,25.00065284345493,6.977840431592012e-18,37.26247383529584,25.000767421217134,-2.9692895522407053e-16,37.26239696094799,1.3580596848926592e-19,3.031235967698102e-05,-1.8986272330995125e-16,22.436136219781396,22.436136219781396,5.052059946163503e-05,0.5909546537651514,0.5909546537651514,22.436136219781396,22.436136219781396,5.052059946163503e-05,0.5909546537651514,0.5909546537651514,6.617203432787939e-18,6.617203432787939e-18
1762671452.469077,-4.0640879483487534e-07,-1.0177786918168281e-20,0.08197328958948802,5.0,0.0,1.5,-8.786054503939295e-20,-3.6647452851739735e-06,1.604560778943786e-17,-6.811366691153263e-05,-5.350622346019058e-18,1.1641631650591768,-4.476545779245957e-18,-0.0006029244704698633,4.321488367120337e-15,0.0,0.0,0.0,25.00065284345493,6.977840431592012e-18,37.26247383529584,25.000767421217134,-2.9692895522407053e-16,37.26239696094799,1.3580596848926592e-19,3.031235967698102e-05,-1.8986272330995125e-16,22.436136219781396,22.436136219781396,5.052059946163503e-05,0.5909546537651514,0.5909546537651514,22.436136219781396,22.436136219781396,5.052059946163503e-05,0.5909546537651514,0.5909546537651514,6.617203432787939e-18,6.617203432787939e-18
1762671452.4706752,-4.0640879483487534e-07,-1.0177786918168281e-20,0.08197328958948802,5.0,0.0,1.5,-8.786054503939295e-20,-3.6647452851739735e-06,1.604560778943786e-17,-6.811366691153263e-05,-5.350622346019058e-18,1.1641631650591768,-4.476545779245957e-18,-0.0006029244704698633,4.321488367120337e-15,0.0,0.0,0.0,25.000683168713092,5.355711239478141e-17,36.65050190146079,25.000817483299247,-3.508141692215144e-16,36.65041028007891,3.1985348242322734e-19,3.197859616607605e-05,-2.2409711420945247e-16,22.182704646705975,22.182704646705975,5.329766027679342e-05,0.5986412124659569,0.5986412124659569,22.182704646705975,22.182704646705975,5.329766027679342e-05,0.5986412124659569,0.5986412124659569,7.907380430131828e-18,7.907380430131828e-18
1762671452.4722548,-4.0640879483487534e-07,-1.0177786918168281e-20,0.08197328958948802,5.0,0.0,1.5,-8.786054503939295e-20,-3.6647452851739735e-06,1.604560778943786e-17,-6.811366691153263e-05,-5.350622346019058e-18,1.1641631650591768,-4.476545779245957e-18,-0.0006029244704698633,4.321488367120337e-15,0.0,0.0,0.0,25.000683168713092,5.355711239478141e-17,36.65050190146079,25.000817483299247,-3.508141692215144e-16,36.65041028007891,3.1985348242322734e-19,3.197859616607605e-05,-2.2409711420945247e-16,22.182704646705975,22.182704646705975,5.329766027679342e-05,0.5986412124659569,0.5986412124659569,22.182704646705975,22.182704646705975,5.329766027679342e-05,0.5986412124659569,0.5986412124659569,7.907380430131828e-18,7.907380430131828e-18
1762671452.4740574,-4.742671026208442e-07,-1.6782015282246464e-20,0.08316402714995397,5.0,0.0,1.5,-9.77204150446975e-20,-4.278959530105101e-06,2.0717085317455567e-17,-7.038153477675259e-05,-3.691832289095238e-18,1.2158922379602897,-2.4089202232660298e-18,-0.0006242925240254227,5.004018674455431e-15,0.0,0.0,0.0,25.000683168713092,5.355711239478141e-17,36.65050190146079,25.000817483299247,-3.508141692215144e-16,36.65041028007891,3.1985348242322734e-19,3.197859616607605e-05,-2.2409711420945247e-16,22.182704646705975,22.182704646705975,5.329766027679342e-05,0.5986412124659569,0.5986412124659569,22.182704646705975,22.182704646705975,5.329766027679342e-05,0.5986412124659569,0.5986412124659569,7.907380430131828e-18,7.907380430131828e-18
1762671452.4755433,-4.742671026208442e-07,-1.6782015282246464e-20,0.08316402714995397,5.0,0.0,1.5,-9.77204150446975e-20,-4.278959530105101e-06,2.0717085317455567e-17,-7.038153477675259e-05,-3.691832289095238e-18,1.2158922379602897,-2.4089202232660298e-18,-0.0006242925240254227,5.004018674455431e-15,0.0,0.0,0.0,25.00070618668328,3.7002232967363536e-17,36.12725748464733,25.000860773527116,-4.844698902407495e-16,36.1271505073066,2.317634857639355e-19,3.335410596631716e-05,-2.6055941612208107e-16,21.967077790233084,21.967077790233084,5.5590176610528605e-05,0.6053536864357718,0.6053536864357718,21.967077790233084,21.967077790233084,5.5590176610528605e-05,0.6053536864357718,0.6053536864357718,1.1027181104082779e-17,1.1027181104082779e-17
1762671452.4770267,-4.742671026208442e-07,-1.6782015282246464e-20,0.08316402714995397,5.0,0.0,1.5,-9.77204150446975e-20,-4.278959530105101e-06,2.0717085317455567e-17,-7.038153477675259e-05,-3.691832289095238e-18,1.2158922379602897,-2.4089202232660298e-18,-0.0006242925240254227,5.004018674455431e-15,0.0,0.0,0.0,25.00070618668328,3.7002232967363536e-17,36.12725748464733,25.000860773527116,-4.844698902407495e-16,36.1271505073066,2.317634857639355e-19,3.335410596631716e-05,-2.6055941612208107e-16,21.967077790233084,21.967077790233084,5.5590176610528605e-05,0.6053536864357718,0.6053536864357718,21.967077790233084,21.967077790233084,5.5590176610528605e-05,0.6053536864357718,0.6053536864357718,1.1027181104082779e-17,1.1027181104082779e-17
1762671452.4786644,-5.43992923209647e-07,-1.5008116418299965e-20,0.08440236016722978,5.0,0.0,1.5,-1.0018534549726158e-19,-4.911627617167803e-06,2.6045264039738104e-17,-7.194455571880485e-05,-7.545814985221531e-18,1.2594752438211607,1.1221228624717872e-18,-0.0006399135733459666,5.634196030720564e-15,0.0,0.0,0.0,25.00070618668328,3.7002232967363536e-17,36.12725748464733,25.000860773527116,-4.844698902407495e-16,36.1271505073066,2.317634857639355e-19,3.335410596631716e-05,-2.6055941612208107e-16,21.967077790233084,21.967077790233084,5.5590176610528605e-05,0.6053536864357718,0.6053536864357718,21.967077790233084,21.967077790233084,5.5590176610528605e-05,0.6053536864357718,0.6053536864357718,1.1027181104082779e-17,1.1027181104082779e-17
1762671452.48023,-5.43992923209647e-07,-1.5008116418299965e-20,0.08440236016722978,5.0,0.0,1.5,-1.0018534549726158e-19,-4.911627617167803e-06,2.6045264039738104e-17,-7.194455571880485e-05,-7.545814985221531e-18,1.2594752438211607,1.1221228624717872e-18,-0.0006399135733459666,5.634196030720564e-15,0.0,0.0,0.0,25.00072216552181,7.553319043430679e-17,35.68523576095225,25.000897437809737,-5.791923449224778e-16,35.68511296628438,6.606251876420214e-20,3.445149247587236e-05,-2.947324621552665e-16,21.785706679481695,21.785706679481695,5.741915412645393e-05,0.6111275490293412,0.6111275490293412,21.785706679481695,21.785706679481695,5.741915412645393e-05,0.6111275490293412,0.6111275490293412,1.3292943704873598e-17,1.3292943704873598e-17
1762671452.4815898,-5.43992923209647e-07,-1.5008116418299965e-20,0.08440236016722978,5.0,0.0,1.5,-1.0018534549726158e-19,-4.911627617167803e-06,2.6045264039738104e-17,-7.194455571880485e-05,-7.545814985221531e-18,1.2594752438211607,1.1221228624717872e-18,-0.0006399135733459666,5.634196030720564e-15,0.0,0.0,0.0,25.00072216552181,7.553319043430679e-17,35.68523576095225,25.000897437809737,-5.791923449224778e-16,35.68511296628438,6.606251876420214e-20,3.445149247587236e-05,-2.947324621552665e-16,21.785706679481695,21.785706679481695,5.741915412645393e-05,0.6111275490293412,0.6111275490293412,21.785706679481695,21.785706679481695,5.741915412645393e-05,0.6111275490293412,0.6111275490293412,1.3292943704873598e-17,1.3292943704873598e-17
1762671452.4832141,-6.149080594846338e-07,-2.247055423001715e-20,0.08568049700628023,5.0,0.0,1.5,-9.39602389004759e-20,-5.557156590799265e-06,3.195133344473394e-17,-7.282922250020725e-05,-1.7126983154032249e-18,1.2956122460283066,8.855268883690176e-18,-0.0006500939123448783,6.1619513759303664e-15,0.0,0.0,0.0,25.00072216552181,7.553319043430679e-17,35.68523576095225,25.000897437809737,-5.791923449224778e-16,35.68511296628438,6.606251876420214e-20,3.445149247587236e-05,-2.947324621552665e-16,21.785706679481695,21.785706679481695,5.741915412645393e-05,0.6111275490293412,0.6111275490293412,21.785706679481695,21.785706679481695,5.741915412645393e-05,0.6111275490293412,0.6111275490293412,1.3292943704873598e-17,1.3292943704873598e-17
1762671452.4847207,-6.149080594846338e-07,-2.247055423001715e-20,0.08568049700628023,5.0,0.0,1.5,-9.39602389004759e-20,-5.557156590799265e-06,3.195133344473394e-17,-7.282922250020725e-05,-1.7126983154032249e-18,1.2956122460283066,8.855268883690176e-18,-0.0006500939123448783,6.1619513759303664e-15,0.0,0.0,0.0,25.000731366765304,1.7239335925182325e-17,35.31747505468553,25.000927631118536,-7.848857936758275e-16,35.317336121161105,-3.157107728222931e-19,3.5283273912629246e-05,-3.2407346565847978e-16,21.635367222506346,21.635367222506346,5.8805456521048744e-05,0.616005060664069,0.616005060664069,21.635367222506346,21.635367222506346,5.8805456521048744e-05,0.616005060664069,0.616005060664069,1.813895242922765e-17,1.813895242922765e-17
1762671452.486262,-6.149080594846338e-07,-2.247055423001715e-20,0.08568049700628023,5.0,0.0,1.5,-9.39602389004759e-20,-5.557156590799265e-06,3.195133344473394e-17,-7.282922250020725e-05,-1.7126983154032249e-18,1.2956122460283066,8.855268883690176e-18,-0.0006500939123448783,6.1619513759303664e-15,0.0,0.0,0.0,25.000731366765304,1.7239335925182325e-17,35.31747505468553,25.000927631118536,-7.848857936758275e-16,35.317336121161105,-3.157107728222931e-19,3.5283273912629246e-05,-3.2407346565847978e-16,21.635367222506346,21.635367222506346,5.8805456521048744e-05,0.616005060664069,0.616005060664069,21.635367222506346,21.635367222506346,5.8805456521048744e-05,0.616005060664069,0.616005060664069,1.813895242922765e-17,1.813895242922765e-17
1762671452.4878883,-6.863598359423017e-07,-2.571525050469601e-20,0.0869913203035268,5.0,0.0,1.5,-7.534948523990947e-20,-6.210257784561889e-06,3.840393998725414e-17,-7.306153946960016e-05,-1.8847354462641823e-18,1.3249523186059773,2.3239125083434756e-18,-0.0006551357226438942,6.704279093865381e-15,0.0,0.0,0.0,25.000731366765304,1.7239335925182325e-17,35.31747505468553,25.000927631118536,-7.848857936758275e-16,35.317336121161105,-3.157107728222931e-19,3.5283273912629246e-05,-3.2407346565847978e-16,21.635367222506346,21.635367222506346,5.8805456521048744e-05,0.616005060664069,0.616005060664069,21.635367222506346,21.635367222506346,5.8805456521048744e-05,0.616005060664069,0.616005060664069,1.813895242922765e-17,1.813895242922765e-17
1762671452.489347,-6.863598359423017e-07,-2.571525050469601e-20,0.0869913203035268,5.0,0.0,1.5,-7.534948523990947e-20,-6.210257784561889e-06,3.840393998725414e-17,-7.306153946960016e-05,-1.8847354462641823e-18,1.3249523186059773,2.3239125083434756e-18,-0.0006551357226438942,6.704279093865381e-15,0.0,0.0,0.0,25.000734047193873,1.8975930715165117e-17,35.017520212422596,25.000951514539263,-9.437892996940664e-16,35.017364950744096,9.263747189918998e-21,3.5861915024455695e-05,-3.5441598546885004e-16,21.513131099189334,21.513131099189334,5.976985837409283e-05,0.6200337072363363,0.6200337072363363,21.513131099189334,21.513131099189334,5.976985837409283e-05,0.6200337072363363,0.6200337072363363,2.1935191473119192e-17,2.1935191473119192e-17
1762671452.490765,-6.863598359423017e-07,-2.571525050469601e-20,0.0869913203035268,5.0,0.0,1.5,-7.534948523990947e-20,-6.210257784561889e-06,3.840393998725414e-17,-7.306153946960016e-05,-1.8847354462641823e-18,1.3249523186059773,2.3239125083434756e-18,-0.0006551357226438942,6.704279093865381e-15,0.0,0.0,0.0,25.000734047193873,1.8975930715165117e-17,35.017520212422596,25.000951514539263,-9.437892996940664e-16,35.017364950744096,9.263747189918998e-21,3.5861915024455695e-05,-3.5441598546885004e-16,21.513131099189334,21.513131099189334,5.976985837409283e-05,0.6200337072363363,0.6200337072363363,21.513131099189334,21.513131099189334,5.976985837409283e-05,0.6200337072363363,0.6200337072363363,2.1935191473119192e-17,2.1935191473119192e-17
1762671452.4924452,-7.577206937053597e-07,-2.9171416490273746e-20,0.0883283377215067,5.0,0.0,1.5,-8.012019218329176e-20,-6.8659428684033154e-06,4.538945995354996e-17,-7.266716811124651e-05,-2.3283041307564265e-18,1.3480969956224222,5.078518691210339e-18,-0.0006553373794223423,7.251821332005839e-15,0.0,0.0,0.0,25.000734047193873,1.8975930715165117e-17,35.017520212422596,25.000951514539263,-9.437892996940664e-16,35.017364950744096,9.263747189918998e-21,3.5861915024455695e-05,-3.5441598546885004e-16,21.513131099189334,21.513131099189334,5.976985837409283e-05,0.6200337072363363,0.6200337072363363,21.513131099189334,21.513131099189334,5.976985837409283e-05,0.6200337072363363,0.6200337072363363,2.1935191473119192e-17,2.1935191473119192e-17
1762671452.4940264,-7.577206937053597e-07,-2.9171416490273746e-20,0.0883283377215067,5.0,0.0,1.5,-8.012019218329176e-20,-6.8659428684033154e-06,4.538945995354996e-17,-7.266716811124651e-05,-2.3283041307564265e-18,1.3480969956224222,5.078518691210339e-18,-0.0006553373794223423,7.251821332005839e-15,0.0,0.0,0.0,25.000730460284572,2.3428898390015498e-17,34.77938835516825,25.000969252988735,-1.1141272731726172e-15,34.779216700761474,-1.188959570739449e-19,3.6199840405291795e-05,-3.8528592956499955e-16,21.416338279672175,21.416338279672175,6.033306734215299e-05,0.6232647461442822,0.6232647461442822,21.416338279672175,21.416338279672175,6.033306734215299e-05,0.6232647461442822,0.6232647461442822,2.6011152294650612e-17,2.6011152294650612e-17
1762671452.4955335,-7.577206937053597e-07,-2.9171416490273746e-20,0.0883283377215067,5.0,0.0,1.5,-8.012019218329176e-20,-6.8659428684033154e-06,4.538945995354996e-17,-7.266716811124651e-05,-2.3283041307564265e-18,1.3480969956224222,5.078518691210339e-18,-0.0006553373794223423,7.251821332005839e-15,0.0,0.0,0.0,25.000730460284572,2.3428898390015498e-17,34.77938835516825,25.000969252988735,-1.1141272731726172e-15,34.779216700761474,-1.188959570739449e-19,3.6199840405291795e-05,-3.8528592956499955e-16,21.416338279672175,21.416338279672175,6.033306734215299e-05,0.6232647461442822,0.6232647461442822,21.416338279672175,21.416338279672175,6.033306734215299e-05,0.6232647461442822,0.6232647461442822,2.6011152294650612e-17,2.6011152294650612e-17
1762671452.4971256,-8.283879115981774e-07,-2.9131668314085867e-20,0.08968563603952243,5.0,0.0,1.5,-8.443607342249751e-20,-7.519520045981443e-06,5.2914765123153105e-17,-7.167153498234759e-05,1.389956600623998e-18,1.365603496220028,1.764843840051133e-18,-0.0006509934554794652,7.78885418401746e-15,0.0,0.0,0.0,25.000730460284572,2.3428898390015498e-17,34.77938835516825,25.000969252988735,-1.1141272731726172e-15,34.779216700761474,-1.188959570739449e-19,3.6199840405291795e-05,-3.8528592956499955e-16,21.416338279672175,21.416338279672175,6.033306734215299e-05,0.6232647461442822,0.6232647461442822,21.416338279672175,21.416338279672175,6.033306734215299e-05,0.6232647461442822,0.6232647461442822,2.6011152294650612e-17,2.6011152294650612e-17
1762671452.498601,-8.283879115981774e-07,-2.9131668314085867e-20,0.08968563603952243,5.0,0.0,1.5,-8.443607342249751e-20,-7.519520045981443e-06,5.2914765123153105e-17,-7.167153498234759e-05,1.389956600623998e-18,1.365603496220028,1.764843840051133e-18,-0.0006509934554794652,7.78885418401746e-15,0.0,0.0,0.0,25.000720857289377,-1.375390766466946e-17,34.597536857602115,25.00098101345451,-1.339582444026489e-15,34.59734886320234,5.528623328841257e-20,3.630943279692855e-05,-4.159001375594175e-16,21.34257138112614,21.34257138112614,6.0515721328214254e-05,0.6257518890898086,0.6257518890898086,21.34257138112614,21.34257138112614,6.0515721328214254e-05,0.6257518890898086,0.6257518890898086,3.138287369653876e-17,3.138287369653876e-17
1762671452.500101,-8.283879115981774e-07,-2.9131668314085867e-20,0.08968563603952243,5.0,0.0,1.5,-8.443607342249751e-20,-7.519520045981443e-06,5.2914765123153105e-17,-7.167153498234759e-05,1.389956600623998e-18,1.365603496220028,1.764843840051133e-18,-0.0006509934554794652,7.78885418401746e-15,0.0,0.0,0.0,25.000720857289377,-1.375390766466946e-17,34.597536857602115,25.00098101345451,-1.339582444026489e-15,34.59734886320234,5.528623328841257e-20,3.630943279692855e-05,-4.159001375594175e-16,21.34257138112614,21.34257138112614,6.0515721328214254e-05,0.6257518890898086,0.6257518890898086,21.34257138112614,21.34257138112614,6.0515721328214254e-05,0.6257518890898086,0.6257518890898086,3.138287369653876e-17,3.138287369653876e-17
1762671452.5018182,-8.977834180328751e-07,-3.2184312135077924e-20,0.0910578383631158,5.0,0.0,1.5,-6.239743375738332e-20,-8.166590131801467e-06,6.091575264304703e-17,-7.009990507974185e-05,1.4346948676169955e-18,1.3779877395357758,1.2275622984008915e-17,-0.0006423944819511565,8.264783912973208e-15,0.0,0.0,0.0,25.000720857289377,-1.375390766466946e-17,34.597536857602115,25.00098101345451,-1.339582444026489e-15,34.59734886320234,5.528623328841257e-20,3.630943279692855e-05,-4.159001375594175e-16,21.34257138112614,21.34257138112614,6.0515721328214254e-05,0.6257518890898086,0.6257518890898086,21.34257138112614,21.34257138112614,6.0515721328214254e-05,0.6257518890898086,0.6257518890898086,3.138287369653876e-17,3.138287369653876e-17
1762671452.5034568,-8.977834180328751e-07,-3.2184312135077924e-20,0.0910578383631158,5.0,0.0,1.5,-6.239743375738332e-20,-8.166590131801467e-06,6.091575264304703e-17,-7.009990507974185e-05,1.4346948676169955e-18,1.3779877395357758,1.2275622984008915e-17,-0.0006423944819511565,8.264783912973208e-15,0.0,0.0,0.0,25.00070548796789,-1.418602711549482e-17,34.466833412826674,25.00098696363582,-1.539273447737131e-15,34.46662924116259,-4.765217692141209e-19,3.620301916341317e-05,-4.4369738727398126e-16,21.28963199005072,21.28963199005072,6.033836527235529e-05,0.627550138580096,0.627550138580096,21.28963199005072,21.28963199005072,6.033836527235529e-05,0.627550138580096,0.627550138580096,3.6150776313476896e-17,3.6150776313476896e-17
1762671452.5048747,-8.977834180328751e-07,-3.2184312135077924e-20,0.0910578383631158,5.0,0.0,1.5,-6.239743375738332e-20,-8.166590131801467e-06,6.091575264304703e-17,-7.009990507974185e-05,1.4346948676169955e-18,1.3779877395357758,1.2275622984008915e-17,-0.0006423944819511565,8.264783912973208e-15,0.0,0.0,0.0,25.00070548796789,-1.418602711549482e-17,34.466833412826674,25.00098696363582,-1.539273447737131e-15,34.46662924116259,-4.765217692141209e-19,3.620301916341317e-05,-4.4369738727398126e-16,21.28963199005072,21.28963199005072,6.033836527235529e-05,0.627550138580096,0.627550138580096,21.28963199005072,21.28963199005072,6.033836527235529e-05,0.627550138580096,0.627550138580096,3.6150776313476896e-17,3.6150776313476896e-17
1762671452.5065193,-9.65353661625191e-07,-3.618516132644163e-20,0.09244006424901556,5.0,0.0,1.5,-4.011748708023417e-20,-8.803042294362759e-06,6.938437741065955e-17,-6.797742469172183e-05,-9.580027903777148e-20,1.3857271628847467,1.886418719992101e-17,-0.000629826524484559,8.668704344731214e-15,0.0,0.0,0.0,25.00070548796789,-1.418602711549482e-17,34.466833412826674,25.00098696363582,-1.539273447737131e-15,34.46662924116259,-4.765217692141209e-19,3.620301916341317e-05,-4.4369738727398126e-16,21.28963199005072,21.28963199005072,6.033836527235529e-05,0.627550138580096,0.627550138580096,21.28963199005072,21.28963199005072,6.033836527235529e-05,0.627550138580096,0.627550138580096,3.6150776313476896e-17,3.6150776313476896e-17
1762671452.5080323,-9.65353661625191e-07,-3.618516132644163e-20,0.09244006424901556,5.0,0.0,1.5,-4.011748708023417e-20,-8.803042294362759e-06,6.938437741065955e-17,-6.797742469172183e-05,-9.580027903777148e-20,1.3857271628847467,1.886418719992101e-17,-0.000629826524484559,8.668704344731214e-15,0.0,0.0,0.0,25.00068460101523,1.1389285970099103e-18,34.382528049907464,25.00098727089514,-1.7348973390803295e-15,34.382307966491325,-8.141077162740236e-19,3.589284737135248e-05,-4.681278810995479e-16,21.255519001127986,21.255519001127986,5.9821412285587474e-05,0.6287147849427589,0.6287147849427589,21.255519001127986,21.255519001127986,5.9821412285587474e-05,0.6287147849427589,0.6287147849427589,4.081051464770779e-17,4.081051464770779e-17
1762671452.5095747,-9.65353661625191e-07,-3.618516132644163e-20,0.09244006424901556,5.0,0.0,1.5,-4.011748708023417e-20,-8.803042294362759e-06,6.938437741065955e-17,-6.797742469172183e-05,-9.580027903777148e-20,1.3857271628847467,1.886418719992101e-17,-0.000629826524484559,8.668704344731214e-15,0.0,0.0,0.0,25.00068460101523,1.1389285970099103e-18,34.382528049907464,25.00098727089514,-1.7348973390803295e-15,34.382307966491325,-8.141077162740236e-19,3.589284737135248e-05,-4.681278810995479e-16,21.255519001127986,21.255519001127986,5.9821412285587474e-05,0.6287147849427589,0.6287147849427589,21.255519001127986,21.255519001127986,5.9821412285587474e-05,0.6287147849427589,0.6287147849427589,4.081051464770779e-17,4.081051464770779e-17
1762671452.5112865,-1.030569512875387e-06,-3.89885201625058e-20,0.093827892555156,5.0,0.0,1.5,-1.1402610464309768e-20,-9.425049310726335e-06,7.819683294123399e-17,-6.532913853714447e-05,-1.6697109585796752e-18,1.3892633557409015,1.897614092501828e-17,-0.0006135706325056337,8.9501467650629e-15,0.0,0.0,0.0,25.00068460101523,1.1389285970099103e-18,34.382528049907464,25.00098727089514,-1.7348973390803295e-15,34.382307966491325,-8.141077162740236e-19,3.589284737135248e-05,-4.681278810995479e-16,21.255519001127986,21.255519001127986,5.9821412285587474e-05,0.6287147849427589,0.6287147849427589,21.255519001127986,21.255519001127986,5.9821412285587474e-05,0.6287147849427589,0.6287147849427589,4.081051464770779e-17,4.081051464770779e-17
1762671452.5128355,-1.030569512875387e-06,-3.89885201625058e-20,0.093827892555156,5.0,0.0,1.5,-1.1402610464309768e-20,-9.425049310726335e-06,7.819683294123399e-17,-6.532913853714447e-05,-1.6697109585796752e-18,1.3892633557409015,1.897614092501828e-17,-0.0006135706325056337,8.9501467650629e-15,0.0,0.0,0.0,25.000658444232936,1.689205218660891e-17,34.34022697981521,25.000982101455136,-1.9384718251425896e-15,34.33999134585133,-8.334590490373288e-19,3.539105628057508e-05,-4.866062204241378e-16,21.238408959822547,21.238408959822547,5.8985093800958475e-05,0.6293005627654239,0.6293005627654239,21.238408959822547,21.238408959822547,5.8985093800958475e-05,0.6293005627654239,0.6293005627654239,4.563599441016664e-17,4.563599441016664e-17
1762671452.5144172,-1.030569512875387e-06,-3.89885201625058e-20,0.093827892555156,5.0,0.0,1.5,-1.1402610464309768e-20,-9.425049310726335e-06,7.819683294123399e-17,-6.532913853714447e-05,-1.6697109585796752e-18,1.3892633557409015,1.897614092501828e-17,-0.0006135706325056337,8.9501467650629e-15,0.0,0.0,0.0,25.000658444232936,1.689205218660891e-17,34.34022697981521,25.000982101455136,-1.9384718251425896e-15,34.33999134585133,-8.334590490373288e-19,3.539105628057508e-05,-4.866062204241378e-16,21.238408959822547,21.238408959822547,5.8985093800958475e-05,0.6293005627654239,0.6293005627654239,21.238408959822547,21.238408959822547,5.8985093800958475e-05,0.6293005627654239,0.6293005627654239,4.563599441016664e-17,4.563599441016664e-17
1762671452.516196,-1.1111139022807426e-06,-6.344521776204412e-20,0.09521772280513692,5.0,0.0,1.5,-9.151842140293735e-18,-1.1906725695699619e-05,9.906094364351194e-17,-0.00012773338545333802,-3.794115245123927e-18,1.3897188249897696,-1.8438312679693113e-14,-0.004094461318147219,3.2652990844788736e-14,0.0,0.0,0.0,25.000658444232936,1.689205218660891e-17,34.34022697981521,25.000982101455136,-1.9384718251425896e-15,34.33999134585133,-8.334590490373288e-19,3.539105628057508e-05,-4.866062204241378e-16,21.238408959822547,21.238408959822547,5.8985093800958475e-05,0.6293005627654239,0.6293005627654239,21.238408959822547,21.238408959822547,5.8985093800958475e-05,0.6293005627654239,0.6293005627654239,4.563599441016664e-17,4.563599441016664e-17
1762671452.517744,-1.1111139022807426e-06,-6.344521776204412e-20,0.09521772280513692,5.0,0.0,1.5,-9.151842140293735e-18,-1.1906725695699619e-05,9.906094364351194e-17,-0.00012773338545333802,-3.794115245123927e-18,1.3897188249897696,-1.8438312679693113e-14,-0.004094461318147219,3.2652990844788736e-14,0.0,0.0,0.0,25.001282889424047,3.825837854004923e-17,34.32872313607662,25.001691630341686,-2.7525606274299943e-15,34.32842545022583,9.291651883404857e-16,0.0002106764287550701,-1.6791601884957626e-15,21.23382485030334,21.233824850303336,0.00035112738125845017,0.6294784159928034,0.6294784159928033,21.23382485030334,21.233824850303336,0.00035112738125845017,0.6294784159928034,0.6294784159928033,6.481546887655222e-17,6.481546887655222e-17
1762671452.5192888,-1.1111139022807426e-06,-6.344521776204412e-20,0.09521772280513692,5.0,0.0,1.5,-9.151842140293735e-18,-1.1906725695699619e-05,9.906094364351194e-17,-0.00012773338545333802,-3.794115245123927e-18,1.3897188249897696,-1.8438312679693113e-14,-0.004094461318147219,3.2652990844788736e-14,0.0,0.0,0.0,25.001282889424047,3.825837854004923e-17,34.32872313607662,25.001691630341686,-2.7525606274299943e-15,34.32842545022583,9.291651883404857e-16,0.0002106764287550701,-1.6791601884957626e-15,21.23382485030334,21.233824850303336,0.00035112738125845017,0.6294784159928034,0.6294784159928033,21.23382485030334,21.233824850303336,0.00035112738125845017,0.6294784159928034,0.6294784159928033,6.481546887655222e-17,6.481546887655222e-17
1762671452.5212045,-1.0999540884276555e-06,-8.9101153280105e-20,0.09660792159594668,5.0,0.0,1.5,-1.8351751318854622e-17,-1.808006074179286e-05,2.311968668448365e-16,6.225308058851442e-05,-3.66052400820804e-18,1.3901615651208064,-1.221725724335194e-14,-0.00969974025111792,2.4134418421538095e-13,0.0,0.0,0.0,25.001282889424047,3.825837854004923e-17,34.32872313607662,25.001691630341686,-2.7525606274299943e-15,34.32842545022583,9.291651883404857e-16,0.0002106764287550701,-1.6791601884957626e-15,21.23382485030334,21.233824850303336,0.00035112738125845017,0.6294784159928034,0.6294784159928033,21.23382485030334,21.233824850303336,0.00035112738125845017,0.6294784159928034,0.6294784159928033,6.481546887655222e-17,6.481546887655222e-17
1762671452.5234919,-1.0999540884276555e-06,-8.9101153280105e-20,0.09660792159594668,5.0,0.0,1.5,-1.8351751318854622e-17,-1.808006074179286e-05,2.311968668448365e-16,6.225308058851442e-05,-3.66052400820804e-18,1.3901615651208064,-1.221725724335194e-14,-0.00969974025111792,2.4134418421538095e-13,0.0,0.0,0.0,24.999382968964564,3.7050745848481953e-17,34.31734474081221,25.000003424555935,-6.3725033513194135e-15,34.31689274484067,6.668572107730684e-16,0.0004940270429263,-1.217806739235816e-14,21.228476087497683,21.228476087497665,0.0008233784048771667,0.6296127393736854,0.6296127393736842,21.228476087497683,21.228476087497665,0.0008233784048771667,0.6296127393736854,0.6296127393736842,1.5009328331091187e-16,1.5009328331091187e-16
1762671452.5256505,-1.0999540884276555e-06,-8.9101153280105e-20,0.09660792159594668,5.0,0.0,1.5,-1.8351751318854622e-17,-1.808006074179286e-05,2.311968668448365e-16,6.225308058851442e-05,-3.66052400820804e-18,1.3901615651208064,-1.221725724335194e-14,-0.00969974025111792,2.4134418421538095e-13,0.0,0.0,0.0,24.999382968964564,3.7050745848481953e-17,34.31734474081221,25.000003424555935,-6.3725033513194135e-15,34.31689274484067,6.668572107730684e-16,0.0004940270429263,-1.217806739235816e-14,21.228476087497683,21.228476087497665,0.0008233784048771667,0.6296127393736854,0.6296127393736842,21.228476087497683,21.228476087497665,0.0008233784048771667,0.6296127393736854,0.6296127393736842,1.5009328331091187e-16,1.5009328331091187e-16
1762671452.527762,-9.326920266808441e-07,-1.2164650200492246e-19,0.09799823209567596,5.0,0.0,1.5,-3.0557995168219006e-17,-3.055869634847206e-05,7.194484733138218e-16,0.00021508069020748864,-3.351778576882245e-18,1.3904594032473243,-1.2184927594856066e-14,-0.015226763636111607,7.351590183028292e-13,0.0,0.0,0.0,24.999382968964564,3.7050745848481953e-17,34.31734474081221,25.000003424555935,-6.3725033513194135e-15,34.31689274484067,6.668572107730684e-16,0.0004940270429263,-1.217806739235816e-14,21.228476087497683,21.228476087497665,0.0008233784048771667,0.6296127393736854,0.6296127393736842,21.228476087497683,21.228476087497665,0.0008233784048771667,0.6296127393736854,0.6296127393736842,1.5009328331091187e-16,1.5009328331091187e-16
1762671452.5297549,-9.326920266808441e-07,-1.2164650200492246e-19,0.09799823209567596,5.0,0.0,1.5,-3.0557995168219006e-17,-3.055869634847206e-05,7.194484733138218e-16,0.00021508069020748864,-3.351778576882245e-18,1.3904594032473243,-1.2184927594856066e-14,-0.015226763636111607,7.351590183028292e-13,0.0,0.0,0.0,24.997853856558052,3.412601827884664e-17,34.30741480704838,24.99890223475756,-1.8998884247053963e-14,34.30665088920442,8.484017331045484e-16,0.0007766175299774384,-3.711025343776488e-14,21.223822696228904,21.22382269622885,0.0012943625499623973,0.6297403793838104,0.6297403793838069,21.223822696228904,21.22382269622885,0.0012943625499623973,0.6297403793838104,0.6297403793838069,4.475839371394143e-16,4.475839371394143e-16
1762671452.531913,-9.326920266808441e-07,-1.2164650200492246e-19,0.09799823209567596,5.0,0.0,1.5,-3.0557995168219006e-17,-3.055869634847206e-05,7.194484733138218e-16,0.00021508069020748864,-3.351778576882245e-18,1.3904594032473243,-1.2184927594856066e-14,-0.015226763636111607,7.351590183028292e-13,0.0,0.0,0.0,24.997853856558052,3.412601827884664e-17,34.30741480704838,24.99890223475756,-1.8998884247053963e-14,34.30665088920442,8.484017331045484e-16,0.0007766175299774384,-3.711025343776488e-14,21.223822696228904,21.22382269622885,0.0012943625499623973,0.6297403793838104,0.6297403793838069,21.223822696228904,21.22382269622885,0.0012943625499623973,0.6297403793838104,0.6297403793838069,4.475839371394143e-16,4.475839371394143e-16
1762671452.533989,-5.92913666118483e-07,-1.5361904645949057e-19,0.0993888392772542,5.0,0.0,1.5,-4.275255731005192e-17,-4.847228505691155e-05,1.842749522597568e-15,0.00038147617949091573,-2.7886303293902745e-18,1.3907549230086669,-1.2160943576209425e-14,-0.020570432472405784,1.511442321977813e-12,0.0,0.0,0.0,24.997853856558052,3.412601827884664e-17,34.30741480704838,24.99890223475756,-1.8998884247053963e-14,34.30665088920442,8.484017331045484e-16,0.0007766175299774384,-3.711025343776488e-14,21.223822696228904,21.22382269622885,0.0012943625499623973,0.6297403793838104,0.6297403793838069,21.223822696228904,21.22382269622885,0.0012943625499623973,0.6297403793838104,0.6297403793838069,4.475839371394143e-16,4.475839371394143e-16
1762671452.535887,-5.92913666118483e-07,-1.5361904645949057e-19,0.0993888392772542,5.0,0.0,1.5,-4.275255731005192e-17,-4.847228505691155e-05,1.842749522597568e-15,0.00038147617949091573,-2.7886303293902745e-18,1.3907549230086669,-1.2160943576209425e-14,-0.020570432472405784,1.511442321977813e-12,0.0,0.0,0.0,24.996188202773418,2.8654398526212436e-17,34.29750657352706,24.997850651923088,-4.7499313792593117e-14,34.29629491087557,1.2512215712865292e-15,0.0010527577661392543,-7.648348410682428e-14,21.219142493309516,21.219142493309405,0.0017545962768987574,0.6298704547799262,0.6298704547799189,21.219142493309516,21.219142493309405,0.0017545962768987574,0.6298704547799262,0.6298704547799189,1.119256204805872e-15,1.119256204805872e-15
1762671452.5377097,-5.92913666118483e-07,-1.5361904645949057e-19,0.0993888392772542,5.0,0.0,1.5,-4.275255731005192e-17,-4.847228505691155e-05,1.842749522597568e-15,0.00038147617949091573,-2.7886303293902745e-18,1.3907549230086669,-1.2160943576209425e-14,-0.020570432472405784,1.511442321977813e-12,0.0,0.0,0.0,24.996188202773418,2.8654398526212436e-17,34.29750657352706,24.997850651923088,-4.7499313792593117e-14,34.29629491087557,1.2512215712865292e-15,0.0010527577661392543,-7.648348410682428e-14,21.219142493309516,21.219142493309405,0.0017545962768987574,0.6298704547799262,0.6298704547799189,21.219142493309516,21.219142493309405,0.0017545962768987574,0.6298704547799262,0.6298704547799189,1.119256204805872e-15,1.119256204805872e-15
1762671452.5398488,-6.727227464906058e-08,-1.8466809694669265e-19,0.10077974080256216,5.0,0.0,1.5,-5.499762998697485e-17,-7.163986776448667e-05,3.880345466439023e-15,0.000561856615254976,-1.8126515584959846e-18,1.3910480833176626,-1.2168495643314424e-14,-0.025735519291216587,2.563748665053799e-12,0.0,0.0,0.0,24.996188202773418,2.8654398526212436e-17,34.29750657352706,24.997850651923088,-4.7499313792593117e-14,34.29629491087557,1.2512215712865292e-15,0.0010527577661392543,-7.648348410682428e-14,21.219142493309516,21.219142493309405,0.0017545962768987574,0.6298704547799262,0.6298704547799189,21.219142493309516,21.219142493309405,0.0017545962768987574,0.6298704547799262,0.6298704547799189,1.119256204805872e-15,1.119256204805872e-15
1762671452.541846,-6.727227464906058e-08,-1.8466809694669265e-19,0.10077974080256216,5.0,0.0,1.5,-5.499762998697485e-17,-7.163986776448667e-05,3.880345466439023e-15,0.000561856615254976,-1.8126515584959846e-18,1.3910480833176626,-1.2168495643314424e-14,-0.025735519291216587,2.563748665053799e-12,0.0,0.0,0.0,24.994381770208825,1.9049856069701955e-17,34.287620462810565,24.996838066663674,-9.885342551247725e-14,34.28582978062055,1.955442164811416e-15,0.0013225958984124332,-1.3011507849623942e-13,21.214434281931883,21.214434281931684,0.0022043264973540555,0.630002700028068,0.6300027000280557,21.214434281931883,21.214434281931684,0.0022043264973540555,0.630002700028068,0.6300027000280557,2.329862399316256e-15,2.329862399316256e-15
1762671452.5439792,-6.727227464906058e-08,-1.8466809694669265e-19,0.10077974080256216,5.0,0.0,1.5,-5.499762998697485e-17,-7.163986776448667e-05,3.880345466439023e-15,0.000561856615254976,-1.8126515584959846e-18,1.3910480833176626,-1.2168495643314424e-14,-0.025735519291216587,2.563748665053799e-12,0.0,0.0,0.0,24.994381770208825,1.9049856069701955e-17,34.287620462810565,24.996838066663674,-9.885342551247725e-14,34.28582978062055,1.955442164811416e-15,0.0013225958984124332,-1.3011507849623942e-13,21.214434281931883,21.214434281931684,0.0022043264973540555,0.630002700028068,0.6300027000280557,21.214434281931883,21.214434281931684,0.0022043264973540555,0.630002700028068,0.6300027000280557,2.329862399316256e-15,2.329862399316256e-15
1762671452.5460274,6.579999295471564e-07,-2.1419018895689073e-19,0.10217093429156246,5.0,0.0,1.5,-6.738331637184666e-17,-9.988519838037584e-05,7.105110318651651e-15,0.0007566245743312107,-1.7880638862395364e-19,1.3913388411031806,-1.2284919244015902e-14,-0.030726677266818797,3.8857794308181805e-12,0.0,0.0,0.0,24.994381770208825,1.9049856069701955e-17,34.287620462810565,24.996838066663674,-9.885342551247725e-14,34.28582978062055,1.955442164811416e-15,0.0013225958984124332,-1.3011507849623942e-13,21.214434281931883,21.214434281931684,0.0022043264973540555,0.630002700028068,0.6300027000280557,21.214434281931883,21.214434281931684,0.0022043264973540555,0.630002700028068,0.6300027000280557,2.329862399316256e-15,2.329862399316256e-15
1762671452.547703,6.579999295471564e-07,-2.1419018895689073e-19,0.10217093429156246,5.0,0.0,1.5,-6.738331637184666e-17,-9.988519838037584e-05,7.105110318651651e-15,0.0007566245743312107,-1.7880638862395364e-19,1.3913388411031806,-1.2284919244015902e-14,-0.030726677266818797,3.8857794308181805e-12,0.0,0.0,0.0,24.99243046425704,2.85901483103932e-18,34.277756917510395,24.995854180125686,-1.7988069727836284e-13,34.27526037264412,3.0357020064804147e-15,0.0015862764624480813,-1.9782642601877047e-13,21.209696917528955,21.20969691752866,0.0026437941040801357,0.6301368565786147,0.6301368565785961,21.209696917528955,21.20969691752866,0.0026437941040801357,0.6301368565786147,0.6301368565785961,4.2405296496646296e-15,4.2405296496646296e-15
1762671452.5493248,6.579999295471564e-07,-2.1419018895689073e-19,0.10217093429156246,5.0,0.0,1.5,-6.738331637184666e-17,-9.988519838037584e-05,7.105110318651651e-15,0.0007566245743312107,-1.7880638862395364e-19,1.3913388411031806,-1.2284919244015902e-14,-0.030726677266818797,3.8857794308181805e-12,0.0,0.0,0.0,24.99243046425704,2.85901483103932e-18,34.277756917510395,24.995854180125686,-1.7988069727836284e-13,34.27526037264412,3.0357020064804147e-15,0.0015862764624480813,-1.9782642601877047e-13,21.209696917528955,21.20969691752866,0.0026437941040801357,0.6301368565786147,0.6301368565785961,21.209696917528955,21.20969691752866,0.0026437941040801357,0.6301368565786147,0.6301368565785961,4.2405296496646296e-15,4.2405296496646296e-15
1762671452.550984,1.5970771503264368e-06,-2.41381150071472e-19,0.10356241732031898,5.0,0.0,1.5,-8.010087761595733e-17,-0.0001330366255645544,1.178369218875022e-14,0.0009661685037067213,2.460604182928233e-18,1.3916271513573777,-1.2481831111923534e-14,-0.035548443189466795,5.471382381301366e-12,0.0,0.0,0.0,24.99243046425704,2.85901483103932e-18,34.277756917510395,24.995854180125686,-1.7988069727836284e-13,34.27526037264412,3.0357020064804147e-15,0.0015862764624480813,-1.9782642601877047e-13,21.209696917528955,21.20969691752866,0.0026437941040801357,0.6301368565786147,0.6301368565785961,21.209696917528955,21.20969691752866,0.0026437941040801357,0.6301368565786147,0.6301368565785961,4.2405296496646296e-15,4.2405296496646296e-15
1762671452.552487,1.5970771503264368e-06,-2.41381150071472e-19,0.10356241732031898,5.0,0.0,1.5,-8.010087761595733e-17,-0.0001330366255645544,1.178369218875022e-14,0.0009661685037067213,2.460604182928233e-18,1.3916271513573777,-1.2481831111923534e-14,-0.035548443189466795,5.471382381301366e-12,0.0,0.0,0.0,24.990330329577176,-2.3399136078968306e-17,34.267916399824635,24.994888996377966,-2.972463832826935e-13,34.26459146736612,4.553732593557548e-15,0.0018439404720594018,-2.79443214082719e-13,21.20492930658071,21.204929306580283,0.003073234120099003,0.6302726726884678,0.6302726726884414,21.20492930658071,21.204929306580283,0.003073234120099003,0.6302726726884678,0.6302726726884414,7.008898237412408e-15,7.008898237412408e-15
1762671452.5539303,1.5970771503264368e-06,-2.41381150071472e-19,0.10356241732031898,5.0,0.0,1.5,-8.010087761595733e-17,-0.0001330366255645544,1.178369218875022e-14,0.0009661685037067213,2.460604182928233e-18,1.3916271513573777,-1.2481831111923534e-14,-0.035548443189466795,5.471382381301366e-12,0.0,0.0,0.0,24.990330329577176,-2.3399136078968306e-17,34.267916399824635,24.994888996377966,-2.972463832826935e-13,34.26459146736612,4.553732593557548e-15,0.0018439404720594018,-2.79443214082719e-13,21.20492930658071,21.204929306580283,0.003073234120099003,0.6302726726884678,0.6302726726884414,21.20492930658071,21.204929306580283,0.003073234120099003,0.6302726726884678,0.6302726726884414,7.008898237412408e-15,7.008898237412408e-15
1762671452.5554144,2.764525786455795e-06,-2.648667403662283e-19,0.10495418741906594,5.0,0.0,1.5,-9.33444590450159e-17,-0.00017092697779422716,1.8176657246000458e-14,0.0011908630717899946,6.572722435167622e-18,1.3919129671855615,-1.2836318482126626e-14,-0.04020524035480753,7.314545406922166e-12,0.0,0.0,0.0,24.990330329577176,-2.3399136078968306e-17,34.267916399824635,24.994888996377966,-2.972463832826935e-13,34.26459146736612,4.553732593557548e-15,0.0018439404720594018,-2.79443214082719e-13,21.20492930658071,21.204929306580283,0.003073234120099003,0.6302726726884678,0.6302726726884414,21.20492930658071,21.204929306580283,0.003073234120099003,0.6302726726884678,0.6302726726884414,7.008898237412408e-15,7.008898237412408e-15
1762671452.5569344,2.764525786455795e-06,-2.648667403662283e-19,0.10495418741906594,5.0,0.0,1.5,-9.33444590450159e-17,-0.00017092697779422716,1.8176657246000458e-14,0.0011908630717899946,6.572722435167622e-18,1.3919129671855615,-1.2836318482126626e-14,-0.04020524035480753,7.314545406922166e-12,0.0,0.0,0.0,24.988077546653173,-6.440289064979811e-17,34.25809939104906,24.993932814992313,-4.574615287145676e-13,34.25382775405106,6.56937255644854e-15,0.0020957255062213393,-3.74794951423162e-13,21.200130405434685,21.200130405434116,0.003492875843702232,0.6304099032485059,0.6304099032484706,21.200130405434685,21.200130405434116,0.003492875843702232,0.6304099032485059,0.6304099032484706,1.0789120631949103e-14,1.0789120631949103e-14
